{"type": "FeatureCollection", "features": [{"type": "Feature", "geometry": {"type": "Point", "coordinates": [-75.158066, 39.978701]}, "properties": {"name": "Statue of Cecil & Moore", "ref": "105", "researchID": "LLA9", "zipcode": "19121", "age": "22", "twitter": null, "facebook": null, "instagram": "@Mattinglyyy", "topicArray": ["Figure", "History", "Philadelphia", "Politics", "Social Justice"], "typeArray": ["Sculpture Statue"], "creationDate": "2017-07-01 20:43:23", "labLocation": "Light labs", "neighborhood": "Brewerytown", "age_range": "20-29"}}, {"type": "Feature", "geometry": {"type": "Point", "coordinates": [-75.215597, 39.966201]}, "properties": {"name": "Circle of Love", "ref": "108", "researchID": "LLA16", "zipcode": "19808", "age": "46", "twitter": null, "facebook": null, "instagram": null, "topicArray": ["Culture", "Inclusivity", "Religion", "Unity", "Youth"], "typeArray": ["Other No Form"], "creationDate": "2017-07-01 20:44:01", "labLocation": "Light labs", "neighborhood": "", "age_range": "40-49"}}, {"type": "Feature", "geometry": {"type": "Point", "coordinates": [-75.15046487, 39.95581532]}, "properties": {"name": "[Untitled]", "ref": "126", "researchID": "LLA57", "zipcode": "19126", "age": "18", "twitter": null, "facebook": null, "instagram": null, "topicArray": ["Unknown"], "typeArray": ["Conceptual"], "creationDate": "2017-07-16 05:00:01", "labLocation": "Light labs", "neighborhood": "Oak Lane", "age_range": "13-19"}}, {"type": "Feature", "geometry": {"type": "Point", "coordinates": [-75.1657936, 39.9523789]}, "properties": {"name": "Ice Sculpture", "ref": "129", "researchID": "LLA42", "zipcode": "19138", "age": "24", "twitter": null, "facebook": null, "instagram": null, "topicArray": ["Unknown"], "typeArray": ["Sculpture Statue"], "creationDate": "2017-07-16 05:00:17", "labLocation": "Light labs", "neighborhood": "West Oak Lane", "age_range": "20-29"}}, {"type": "Feature", "geometry": {"type": "Point", "coordinates": [-75.1749046, 39.9645853]}, "properties": {"name": "Jane Golden", "ref": "132", "researchID": "LLA39", "zipcode": "19130", "age": "18", "twitter": null, "facebook": null, "instagram": null, "topicArray": ["Figure", "History", "Philadelphia"], "typeArray": ["Sculpture Statue"], "creationDate": "2017-07-16 05:00:32", "labLocation": "Light labs", "neighborhood": "Art Museum,Francisville", "age_range": "13-19"}}, {"type": "Feature", "geometry": {"type": "Point", "coordinates": [-73.986831317873, 40.754371448499]}, "properties": {"name": "DSG Sign", "ref": "134", "researchID": "LLA53", "zipcode": "19121", "age": "16", "twitter": null, "facebook": null, "instagram": "Brillymillzdsg", "topicArray": ["Music", "Pop Culture", "Youth"], "typeArray": ["Other No Form"], "creationDate": "2017-07-16 05:00:42", "labLocation": "Light labs", "neighborhood": "Brewerytown", "age_range": "13-19"}}, {"type": "Feature", "geometry": {"type": "Point", "coordinates": [-75.155794792308, 39.968451454005]}, "properties": {"name": "Industrial ERA Old Steam Plant", "ref": "135", "researchID": "LLA60", "zipcode": "19106", "age": "73", "twitter": null, "facebook": null, "instagram": null, "topicArray": ["Architecture", "Industrial"], "typeArray": ["Closed Factory"], "creationDate": "2017-07-16 05:00:47", "labLocation": null, "neighborhood": "Society Hill,Old City", "age_range": "70+"}}, {"type": "Feature", "geometry": {"type": "Point", "coordinates": [-75.165351043677, 39.954030179821]}, "properties": {"name": "[Untitled]", "ref": "136", "researchID": "LLA40", "zipcode": "", "age": null, "twitter": "LLA40", "facebook": null, "instagram": null, "topicArray": ["Art", "Music"], "typeArray": ["Space", "Conceptual", "Performance"], "creationDate": "2017-07-16 05:00:53", "labLocation": "Light labs", "neighborhood": "", "age_range": ""}}, {"type": "Feature", "geometry": {"type": "Point", "coordinates": [-75.1522202, 39.9488703]}, "properties": {"name": "Food for your soul", "ref": "138", "researchID": "LLA28", "zipcode": "19107", "age": "26", "twitter": null, "facebook": null, "instagram": null, "topicArray": ["Food", "Philadelphia"], "typeArray": ["Other No Form"], "creationDate": "2017-07-16 05:01:03", "labLocation": "Light labs", "neighborhood": "Washington Square West,Avenue of The Arts,Midtown Village,Chinatown", "age_range": "20-29"}}, {"type": "Feature", "geometry": {"type": "Point", "coordinates": [-75.177651654214, 39.931364378643]}, "properties": {"name": "Phillies", "ref": "145", "researchID": "LLA26", "zipcode": "NJ08029", "age": "9", "twitter": null, "facebook": null, "instagram": null, "topicArray": ["Sports"], "typeArray": ["Concrete"], "creationDate": "2017-07-16 05:01:39", "labLocation": "Light labs", "neighborhood": "", "age_range": "6-13"}}, {"type": "Feature", "geometry": {"type": "Point", "coordinates": [-75.172463854215, 39.964679853224]}, "properties": {"name": "Jane Golden", "ref": "146", "researchID": "LLA39", "zipcode": "19130", "age": "18", "twitter": null, "facebook": null, "instagram": null, "topicArray": ["Art", "History", "Philadelphia", "Women"], "typeArray": ["Sculpture Statue"], "creationDate": "2017-07-16 05:01:44", "labLocation": "Light labs", "neighborhood": "Art Museum,Francisville", "age_range": "13-19"}}, {"type": "Feature", "geometry": {"type": "Point", "coordinates": [-75.234535943007, 39.948848677258]}, "properties": {"name": "Never Dance Alone", "ref": "149", "researchID": "LLA38", "zipcode": "", "age": "21", "twitter": null, "facebook": null, "instagram": null, "topicArray": ["Music", "Technology"], "typeArray": ["Interactive", "Concrete", "Projection"], "creationDate": "2017-07-16 05:01:59", "labLocation": "Light labs", "neighborhood": "", "age_range": "20-29"}}, {"type": "Feature", "geometry": {"type": "Point", "coordinates": [-75.17863210787, 39.963324687187]}, "properties": {"name": "Home of the Philly Cheesesteak", "ref": "150", "researchID": "LLA51", "zipcode": "19144", "age": "52", "twitter": null, "facebook": null, "instagram": "ladylovelee", "topicArray": ["Culture", "Food", "Philadelphia"], "typeArray": [""], "creationDate": "2017-07-16 05:02:04", "labLocation": "Light labs", "neighborhood": "Germantown", "age_range": "50-59"}}, {"type": "Feature", "geometry": {"type": "Point", "coordinates": [-75.158897648786, 39.954951294738]}, "properties": {"name": "Ice Scuplture", "ref": "151", "researchID": "LLA42", "zipcode": "19138", "age": "24", "twitter": null, "facebook": null, "instagram": null, "topicArray": ["Art"], "typeArray": ["Concrete"], "creationDate": "2017-07-16 05:02:09", "labLocation": "Light labs", "neighborhood": "West Oak Lane", "age_range": "20-29"}}, {"type": "Feature", "geometry": {"type": "Point", "coordinates": [-75.149250303708, 39.951561017163]}, "properties": {"name": "Food For Your Soul", "ref": "153", "researchID": "LLA28", "zipcode": "19107", "age": "26", "twitter": null, "facebook": null, "instagram": null, "topicArray": ["Food", "Philadelphia"], "typeArray": ["Other No Form"], "creationDate": "2017-07-16 05:02:19", "labLocation": "Light labs", "neighborhood": "Washington Square West,Avenue of The Arts,Midtown Village,Chinatown", "age_range": "20-29"}}, {"type": "Feature", "geometry": {"type": "Point", "coordinates": [-75.129093743309, 39.966278]}, "properties": {"name": "Statue", "ref": "156", "researchID": "LLA44", "zipcode": "", "age": "61", "twitter": null, "facebook": null, "instagram": null, "topicArray": ["Unknown"], "typeArray": ["Sculpture Statue"], "creationDate": "2017-07-16 05:02:34", "labLocation": "Light labs", "neighborhood": "", "age_range": "60-69"}}, {"type": "Feature", "geometry": {"type": "Point", "coordinates": [-75.159396539663, 39.943444692202]}, "properties": {"name": "[Untitled]", "ref": "157", "researchID": "LLA43", "zipcode": "", "age": null, "twitter": null, "facebook": null, "instagram": null, "topicArray": ["Inclusivity", "Unity"], "typeArray": ["Conceptual"], "creationDate": "2017-07-16 05:02:39", "labLocation": "Light labs", "neighborhood": "", "age_range": ""}}, {"type": "Feature", "geometry": {"type": "Point", "coordinates": [-75.157610188459, 39.977629835342]}, "properties": {"name": "Concrete Jungle", "ref": "164", "researchID": "LLA48", "zipcode": "19382", "age": "21", "twitter": null, "facebook": null, "instagram": "s0phii", "topicArray": ["Food", "Health", "Philadelphia"], "typeArray": ["Garden", "Infrastructure", "Interactive", "Space"], "creationDate": "2017-07-16 05:04:34", "labLocation": "Light labs", "neighborhood": "", "age_range": "20-29"}}, {"type": "Feature", "geometry": {"type": "Point", "coordinates": [-75.160472388266, 39.9354901]}, "properties": {"name": "Community Table", "ref": "170", "researchID": "LLA55", "zipcode": "19050", "age": "22", "twitter": null, "facebook": null, "instagram": null, "topicArray": ["Brotherly Love", "Culture", "Immigration", "Inclusivity", "Unity"], "typeArray": ["Interactive", "Space"], "creationDate": "2017-07-16 05:05:03", "labLocation": "Light labs", "neighborhood": "", "age_range": "20-29"}}, {"type": "Feature", "geometry": {"type": "Point", "coordinates": [-75.142180380768, 39.949673514641]}, "properties": {"name": "The Darkest Passage", "ref": "175", "researchID": "LLA37", "zipcode": "19144", "age": "28", "twitter": null, "facebook": null, "instagram": null, "topicArray": ["African Americans", "History", "Human Rights", "Social Justice"], "typeArray": ["Conceptual"], "creationDate": "2017-07-16 05:05:27", "labLocation": "Light labs", "neighborhood": "Germantown", "age_range": "20-29"}}, {"type": "Feature", "geometry": {"type": "Point", "coordinates": [-75.150234113668, 39.955987534179]}, "properties": {"name": "?", "ref": "176", "researchID": "LLA32", "zipcode": "19033", "age": "57", "twitter": null, "facebook": null, "instagram": null, "topicArray": ["Culture", "Music", "Neighborhoods"], "typeArray": ["Audio", "Mural", "Song Sound", "Sculpture Statue", "Street"], "creationDate": "2017-07-16 05:05:32", "labLocation": "Light labs", "neighborhood": "", "age_range": "50-59"}}, {"type": "Feature", "geometry": {"type": "Point", "coordinates": [-75.182151545843, 39.955767551829]}, "properties": {"name": "Passing Through", "ref": "177", "researchID": "LLA27", "zipcode": "19104", "age": "22", "twitter": null, "facebook": null, "instagram": "miscellainie", "topicArray": ["Art", "Philadelphia"], "typeArray": ["Interactive", "Space", "Sculpture Statue"], "creationDate": "2017-07-16 05:05:40", "labLocation": "Light labs", "neighborhood": "University City,Belmont,Parkside,Powelton Village", "age_range": "20-29"}}, {"type": "Feature", "geometry": {"type": "Point", "coordinates": [-75.165423701667, 39.954001325387]}, "properties": {"name": "Love Now Joy", "ref": "178", "researchID": "LLA45", "zipcode": "19147", "age": "42", "twitter": null, "facebook": null, "instagram": "KimberlyConnerton", "topicArray": ["Art", "Music", "Love"], "typeArray": ["Space", "Song Sound", "Projection"], "creationDate": "2017-07-16 05:05:45", "labLocation": "Light labs", "neighborhood": "Queen Village,Bella Vista,Pennsport,Italian Market", "age_range": "40-49"}}, {"type": "Feature", "geometry": {"type": "Point", "coordinates": [-75.1522149, 39.9488703]}, "properties": {"name": "Voice", "ref": "179", "researchID": "LLA35", "zipcode": "19139", "age": "25", "twitter": null, "facebook": null, "instagram": null, "topicArray": ["Education", "Figure", "History"], "typeArray": ["Audio"], "creationDate": "2017-07-16 05:05:50", "labLocation": "Logan Circle", "neighborhood": "Walnut Hill", "age_range": "20-29"}}, {"type": "Feature", "geometry": {"type": "Point", "coordinates": [-75.1732362, 39.9595242]}, "properties": {"name": "Brotherly Love Locks", "ref": "182", "researchID": "LLA36", "zipcode": "19149", "age": "12", "twitter": "musicalbri10", "facebook": null, "instagram": null, "topicArray": ["Brotherly Love", "Philadelphia"], "typeArray": ["Infrastructure", "Interactive", "Space", "Concrete"], "creationDate": "2017-07-16 05:06:08", "labLocation": "Light labs", "neighborhood": "Frankford", "age_range": "6-13"}}, {"type": "Feature", "geometry": {"type": "Point", "coordinates": [-75.226195367413, 39.952145144822]}, "properties": {"name": "Melting Pot Monument", "ref": "183", "researchID": "LLA54", "zipcode": "19121", "age": null, "twitter": null, "facebook": null, "instagram": null, "topicArray": ["African Americans", "Culture", "Inclusivity", "Unity", "Uplifting"], "typeArray": ["Other No Form"], "creationDate": "2017-07-16 05:06:13", "labLocation": "Light labs", "neighborhood": "Brewerytown", "age_range": ""}}, {"type": "Feature", "geometry": {"type": "Point", "coordinates": [-75.140321479568, 40.001451770778]}, "properties": {"name": "Philly Philm", "ref": "184", "researchID": "LLA46", "zipcode": "11205", "age": "21", "twitter": null, "facebook": null, "instagram": "sh_nn0n", "topicArray": ["Art", "Culture", "Pop Culture"], "typeArray": ["Interactive", "Projection", "Film"], "creationDate": "2017-07-16 05:06:17", "labLocation": "Light labs", "neighborhood": "", "age_range": "20-29"}}, {"type": "Feature", "geometry": {"type": "Point", "coordinates": [-75.150470026042, 39.956162322564]}, "properties": {"name": "If I Could Buy the City a Coke", "ref": "185", "researchID": "LLA29", "zipcode": "19146", "age": "29", "twitter": null, "facebook": null, "instagram": null, "topicArray": ["Education", "Food", "Philadelphia", "Social Justice"], "typeArray": ["Fountain", "Infrastructure", "Space", "Concrete"], "creationDate": "2017-07-16 05:06:22", "labLocation": "Light labs", "neighborhood": "Graduate Hospital,Naval Square,Southwest Center City", "age_range": "20-29"}}, {"type": "Feature", "geometry": {"type": "Point", "coordinates": [-75.263644413495, 39.966784112121]}, "properties": {"name": "Food Culture", "ref": "186", "researchID": "LLA58", "zipcode": "19143", "age": "28", "twitter": "just-gwright", "facebook": null, "instagram": null, "topicArray": ["Culture", "Food", "Neighborhoods"], "typeArray": ["Other No Form"], "creationDate": "2017-07-16 05:06:27", "labLocation": "Light labs", "neighborhood": "University City", "age_range": "20-29"}}, {"type": "Feature", "geometry": {"type": "Point", "coordinates": [-75.139188776947, 39.955806604626]}, "properties": {"name": "Sound Garden", "ref": "187", "researchID": "LLA33", "zipcode": "19147", "age": "44", "twitter": null, "facebook": null, "instagram": "yopro", "topicArray": ["Culture", "Environment", "Unity"], "typeArray": ["Garden", "Interactive", "Song Sound", "Park", "Other No Form"], "creationDate": "2017-07-16 05:06:32", "labLocation": "Light labs", "neighborhood": "Queen Village,Bella Vista,Pennsport,Italian Market", "age_range": "40-49"}}, {"type": "Feature", "geometry": {"type": "Point", "coordinates": [-75.191330920194, 39.953964385423]}, "properties": {"name": "[Untitled]", "ref": "188", "researchID": "LLA47", "zipcode": "19104", "age": "20", "twitter": null, "facebook": null, "instagram": null, "topicArray": ["History", "Neighborhoods"], "typeArray": ["Infrastructure", "Space", "Concrete"], "creationDate": "2017-07-16 05:06:39", "labLocation": "Light labs", "neighborhood": "University City,Belmont,Parkside,Powelton Village", "age_range": "20-29"}}, {"type": "Feature", "geometry": {"type": "Point", "coordinates": [-75.176550556065, 40.035329307188]}, "properties": {"name": "Philly's Family Love", "ref": "189", "researchID": "LLA52", "zipcode": "19144", "age": "50", "twitter": null, "facebook": null, "instagram": "@ladylovelee", "topicArray": ["Family", "Food", "Philadelphia", "Sports"], "typeArray": ["Concrete"], "creationDate": "2017-07-16 05:06:44", "labLocation": "Light labs", "neighborhood": "Germantown", "age_range": "50-59"}}, {"type": "Feature", "geometry": {"type": "Point", "coordinates": [-75.1525997, 39.9558087]}, "properties": {"name": "Inspiration", "ref": "194", "researchID": "LLA24", "zipcode": "19119", "age": "73", "twitter": null, "facebook": null, "instagram": null, "topicArray": ["Uplifting"], "typeArray": ["Conceptual", "Image"], "creationDate": "2017-08-01 19:22:02", "labLocation": "Light labs", "neighborhood": "Mount Airy", "age_range": "70+"}}, {"type": "Feature", "geometry": {"type": "Point", "coordinates": [-75.165264, 39.953856]}, "properties": {"name": "Benjamin's Bench", "ref": "207", "researchID": "LLA13", "zipcode": "MA02144", "age": "25", "twitter": null, "facebook": null, "instagram": null, "topicArray": ["Technology"], "typeArray": ["Bench"], "creationDate": "2017-08-01 20:20:01", "labLocation": "Light labs", "neighborhood": "", "age_range": "20-29"}}, {"type": "Feature", "geometry": {"type": "Point", "coordinates": [-75.150647173857, 39.95547764055]}, "properties": {"name": "Founding Fathers", "ref": "209", "researchID": "LLA14", "zipcode": "21224", "age": null, "twitter": null, "facebook": null, "instagram": null, "topicArray": ["History"], "typeArray": ["Sculpture Statue"], "creationDate": "2017-08-01 20:22:01", "labLocation": "Light labs", "neighborhood": "", "age_range": ""}}, {"type": "Feature", "geometry": {"type": "Point", "coordinates": [-75.21397, 39.94895]}, "properties": {"name": "Monument to Affordable Rent", "ref": "211", "researchID": "LLA12", "zipcode": "11225", "age": "21", "twitter": null, "facebook": null, "instagram": null, "topicArray": ["Philadelphia", "Social Justice"], "typeArray": ["Other No Form"], "creationDate": "2017-08-01 20:24:01", "labLocation": "Light labs", "neighborhood": "", "age_range": "20-29"}}, {"type": "Feature", "geometry": {"type": "Point", "coordinates": [-75.158527, 39.951825]}, "properties": {"name": "Always Building", "ref": "215", "researchID": "LLA10", "zipcode": "19002", "age": "57", "twitter": null, "facebook": null, "instagram": null, "topicArray": ["Architecture", "Industrial", "Uplifting"], "typeArray": ["Conceptual"], "creationDate": "2017-08-01 20:26:01", "labLocation": "Light labs", "neighborhood": "", "age_range": "50-59"}}, {"type": "Feature", "geometry": {"type": "Point", "coordinates": [-75.163594, 39.952423]}, "properties": {"name": "Build Your Monument", "ref": "219", "researchID": "LLA8", "zipcode": "19148", "age": "36", "twitter": null, "facebook": null, "instagram": null, "topicArray": ["Architecture", "Philadelphia"], "typeArray": ["Building", "Infrastructure", "Interactive"], "creationDate": "2017-08-01 20:28:01", "labLocation": "Light labs", "neighborhood": "Whitman,Pennsport,South Philadelphia", "age_range": "30-39"}}, {"type": "Feature", "geometry": {"type": "Point", "coordinates": [-75.150001, 39.948995]}, "properties": {"name": "Unity of Freedom", "ref": "223", "researchID": "LLA6", "zipcode": "17857", "age": "71", "twitter": null, "facebook": null, "instagram": null, "topicArray": ["Unity", "Freedom"], "typeArray": ["Conceptual"], "creationDate": "2017-08-01 20:30:01", "labLocation": "Light labs", "neighborhood": "", "age_range": "70+"}}, {"type": "Feature", "geometry": {"type": "Point", "coordinates": [-75.150389681791, 39.95547764055]}, "properties": {"name": "Usain Bolt", "ref": "227", "researchID": "LLA22", "zipcode": "", "age": "13", "twitter": null, "facebook": null, "instagram": null, "topicArray": ["Sports"], "typeArray": ["Concrete"], "creationDate": "2017-08-01 20:32:01", "labLocation": "Light labs", "neighborhood": "", "age_range": "13-19"}}, {"type": "Feature", "geometry": {"type": "Point", "coordinates": [-75.170854, 39.957884]}, "properties": {"name": "Face of Philadelphia", "ref": "231", "researchID": "LLA19", "zipcode": "19808", "age": "11", "twitter": "Stephhopsoveru", "facebook": null, "instagram": null, "topicArray": ["Philadelphia"], "typeArray": ["Conceptual"], "creationDate": "2017-08-01 20:36:01", "labLocation": "Light labs", "neighborhood": "", "age_range": "6-13"}}, {"type": "Feature", "geometry": {"type": "Point", "coordinates": [-75.150668631526, 39.955543433491]}, "properties": {"name": "Bus", "ref": "233", "researchID": "LLA18", "zipcode": "", "age": "5", "twitter": null, "facebook": null, "instagram": null, "topicArray": ["Unknown"], "typeArray": [""], "creationDate": "2017-08-01 20:36:05", "labLocation": "Light labs", "neighborhood": "", "age_range": "<6"}}, {"type": "Feature", "geometry": {"type": "Point", "coordinates": [-75.151491, 39.953191]}, "properties": {"name": "Joe Frazier", "ref": "234", "researchID": "LLA4", "zipcode": "19143", "age": "33", "twitter": null, "facebook": null, "instagram": null, "topicArray": ["African Americans", "Sports"], "typeArray": ["Conceptual"], "creationDate": "2017-08-01 20:36:07", "labLocation": "Light labs", "neighborhood": "University City", "age_range": "30-39"}}, {"type": "Feature", "geometry": {"type": "Point", "coordinates": [-75.138759, 39.991897]}, "properties": {"name": "Philly Family", "ref": "237", "researchID": "LLA2", "zipcode": "19133", "age": "5", "twitter": null, "facebook": null, "instagram": null, "topicArray": ["Family"], "typeArray": ["Conceptual"], "creationDate": "2017-08-01 20:38:01", "labLocation": "Light labs", "neighborhood": "Fairhill,North Philadelphia", "age_range": "<6"}}, {"type": "Feature", "geometry": {"type": "Point", "coordinates": [-75.164516, 39.952959]}, "properties": {"name": "The People of Peace", "ref": "239", "researchID": "LLB4", "zipcode": "19041", "age": "6", "twitter": null, "facebook": null, "instagram": null, "topicArray": ["Uplifting"], "typeArray": ["Conceptual"], "creationDate": "2017-08-02 17:48:02", "labLocation": "Light labs", "neighborhood": "", "age_range": "6-13"}}, {"type": "Feature", "geometry": {"type": "Point", "coordinates": [-75.168542, 39.904734]}, "properties": {"name": "City of Love", "ref": "240", "researchID": "LLB3", "zipcode": "19130", "age": "34", "twitter": null, "facebook": null, "instagram": null, "topicArray": ["History", "Music", "Sports"], "typeArray": ["Audio"], "creationDate": "2017-08-02 17:48:04", "labLocation": "Light labs", "neighborhood": "Art Museum,Francisville", "age_range": "30-39"}}, {"type": "Feature", "geometry": {"type": "Point", "coordinates": [-75.150701, 40.008986]}, "properties": {"name": "JAZZ/ROCK- JAROC", "ref": "242", "researchID": "LLB2", "zipcode": "19132", "age": "29", "twitter": null, "facebook": null, "instagram": null, "topicArray": ["Music"], "typeArray": [""], "creationDate": "2017-08-02 17:48:08", "labLocation": "Light labs", "neighborhood": "Strawberry Mansion", "age_range": "20-29"}}, {"type": "Feature", "geometry": {"type": "Point", "coordinates": [-75.168431, 39.960393]}, "properties": {"name": "Mathias Baldwin", "ref": "245", "researchID": "LLB6", "zipcode": "19130", "age": "79", "twitter": null, "facebook": null, "instagram": null, "topicArray": ["Figure", "History", "Industrial"], "typeArray": ["Sculpture Statue"], "creationDate": "2017-08-02 17:50:01", "labLocation": "Light labs", "neighborhood": "Art Museum,Francisville", "age_range": "70+"}}, {"type": "Feature", "geometry": {"type": "Point", "coordinates": [-75.21192, 39.98673]}, "properties": {"name": "Fields", "ref": "247", "researchID": "LLB5", "zipcode": "19119", "age": "10", "twitter": null, "facebook": null, "instagram": null, "topicArray": ["Sports"], "typeArray": ["Interactive", "Space"], "creationDate": "2017-08-02 17:50:05", "labLocation": "Light labs", "neighborhood": "Mount Airy", "age_range": "6-13"}}, {"type": "Feature", "geometry": {"type": "Point", "coordinates": [-75.2128285, 39.9466818]}, "properties": {"name": "Pesto and Marmalade", "ref": "250", "researchID": "LLB8", "zipcode": "19143", "age": "21", "twitter": null, "facebook": null, "instagram": "lizardbby666", "topicArray": ["Animals"], "typeArray": ["Sculpture Statue"], "creationDate": "2017-08-02 17:52:03", "labLocation": "Light labs", "neighborhood": "University City", "age_range": "20-29"}}, {"type": "Feature", "geometry": {"type": "Point", "coordinates": [-75.144162, 40.024001]}, "properties": {"name": "The Lion of Logan", "ref": "251", "researchID": "LLB7", "zipcode": "19141", "age": "42", "twitter": "actorcousarbey", "facebook": null, "instagram": null, "topicArray": ["African Americans", "Women", "Youth"], "typeArray": ["Other No Form"], "creationDate": "2017-08-02 17:52:05", "labLocation": "Light labs", "neighborhood": "Logan", "age_range": "40-49"}}, {"type": "Feature", "geometry": {"type": "Point", "coordinates": [-75.1706, 39.9564]}, "properties": {"name": "A Monument to the Humble Pigeon", "ref": "254", "researchID": "LLB9", "zipcode": "19125", "age": "33", "twitter": null, "facebook": null, "instagram": null, "topicArray": ["Animals"], "typeArray": ["Other No Form"], "creationDate": "2017-08-02 21:16:03", "labLocation": "Light labs", "neighborhood": "Fishtown,Kensington", "age_range": "30-39"}}, {"type": "Feature", "geometry": {"type": "Point", "coordinates": [-75.149865, 39.948879]}, "properties": {"name": "I LOVE PHILLY", "ref": "256", "researchID": "LLB10", "zipcode": "10606", "age": "24", "twitter": null, "facebook": null, "instagram": null, "topicArray": ["Philadelphia"], "typeArray": ["Sculpture Statue"], "creationDate": "2017-08-02 22:28:03", "labLocation": "Light labs", "neighborhood": "", "age_range": "20-29"}}, {"type": "Feature", "geometry": {"type": "Point", "coordinates": [-75.159080039001, 39.955559881717]}, "properties": {"name": "Untitled", "ref": "258", "researchID": "LLB11", "zipcode": "19130", "age": "29", "twitter": null, "facebook": null, "instagram": null, "topicArray": ["Philadelphia"], "typeArray": ["Conceptual"], "creationDate": "2017-08-02 23:00:03", "labLocation": "Light labs", "neighborhood": "Art Museum,Francisville", "age_range": "20-29"}}, {"type": "Feature", "geometry": {"type": "Point", "coordinates": [-75.193072, 39.949226]}, "properties": {"name": "Brave Struggle", "ref": "263", "researchID": "LLB12", "zipcode": "19444", "age": "77", "twitter": null, "facebook": null, "instagram": null, "topicArray": ["Health"], "typeArray": ["Other No Form"], "creationDate": "2017-08-09 17:50:04", "labLocation": "Light labs", "neighborhood": "", "age_range": "70+"}}, {"type": "Feature", "geometry": {"type": "Point", "coordinates": [-75.173028196429, 39.960510617799]}, "properties": {"name": "Nest", "ref": "265", "researchID": "LLB13", "zipcode": "19130", "age": "29", "twitter": "dbrist", "facebook": null, "instagram": null, "topicArray": ["Animals"], "typeArray": ["Interactive"], "creationDate": "2017-08-09 17:52:03", "labLocation": "Light labs", "neighborhood": "Art Museum,Francisville", "age_range": "20-29"}}, {"type": "Feature", "geometry": {"type": "Point", "coordinates": [-75.143355, 39.933313]}, "properties": {"name": "New Country", "ref": "268", "researchID": "LLB15", "zipcode": "75012", "age": "17", "twitter": null, "facebook": null, "instagram": "givlia_orl", "topicArray": ["Immigration", "Philadelphia"], "typeArray": ["Other No Form"], "creationDate": "2017-08-09 17:52:09", "labLocation": "Light labs", "neighborhood": "", "age_range": "13-19"}}, {"type": "Feature", "geometry": {"type": "Point", "coordinates": [-75.173038589989, 39.960444829635]}, "properties": {"name": "Free Masonry Hall", "ref": "269", "researchID": "LLB14", "zipcode": "", "age": "70", "twitter": null, "facebook": null, "instagram": null, "topicArray": ["Art", "History", "Philadelphia"], "typeArray": ["Other No Form"], "creationDate": "2017-08-09 17:52:11", "labLocation": "Light labs", "neighborhood": "", "age_range": "70+"}}, {"type": "Feature", "geometry": {"type": "Point", "coordinates": [-75.172013, 39.959399]}, "properties": {"name": "Arch of Intersectionality", "ref": "273", "researchID": "LLB17", "zipcode": "19146", "age": "62", "twitter": null, "facebook": null, "instagram": null, "topicArray": ["Unity"], "typeArray": ["Infrastructure", "Space"], "creationDate": "2017-08-09 17:54:07", "labLocation": "Light labs", "neighborhood": "Graduate Hospital,Naval Square,Southwest Center City", "age_range": "60-69"}}, {"type": "Feature", "geometry": {"type": "Point", "coordinates": [-75.160915, 39.947167]}, "properties": {"name": "URR of Phila", "ref": "274", "researchID": "LLB16", "zipcode": "19135", "age": "63", "twitter": null, "facebook": null, "instagram": null, "topicArray": ["African Americans", "Religion"], "typeArray": ["Other No Form"], "creationDate": "2017-08-09 17:54:09", "labLocation": "Light labs", "neighborhood": "Tacony", "age_range": "60-69"}}, {"type": "Feature", "geometry": {"type": "Point", "coordinates": [-75.149127, 39.953897]}, "properties": {"name": "Untitled", "ref": "275", "researchID": "LLB18", "zipcode": "19095", "age": "85", "twitter": null, "facebook": null, "instagram": null, "topicArray": ["Figure", "History", "Philadelphia", "Social Justice", "Women"], "typeArray": ["Other No Form"], "creationDate": "2017-08-09 17:54:11", "labLocation": "Light labs", "neighborhood": "Wyncote", "age_range": "70+"}}, {"type": "Feature", "geometry": {"type": "Point", "coordinates": [-75.226339, 39.952791]}, "properties": {"name": "You're Full of Art", "ref": "278", "researchID": "LLB20", "zipcode": "19139", "age": "10 + 27", "twitter": null, "facebook": null, "instagram": null, "topicArray": ["Food", "Wawa"], "typeArray": ["Playground"], "creationDate": "2017-08-09 17:56:05", "labLocation": "Light labs", "neighborhood": "Walnut Hill", "age_range": "13-19"}}, {"type": "Feature", "geometry": {"type": "Point", "coordinates": [-75.188735, 39.980309]}, "properties": {"name": "John Coltrane", "ref": "279", "researchID": "LLB19", "zipcode": "19147", "age": "25", "twitter": null, "facebook": null, "instagram": "snaymanrackshaw", "topicArray": ["Figure", "Music"], "typeArray": ["Sculpture Statue", "Historical Marker"], "creationDate": "2017-08-09 17:56:07", "labLocation": "Light labs", "neighborhood": "Queen Village,Bella Vista,Pennsport,Italian Market", "age_range": "20-29"}}, {"type": "Feature", "geometry": {"type": "Point", "coordinates": [-75.144181, 39.95531]}, "properties": {"name": "PHL @Work", "ref": "283", "researchID": "LLB23", "zipcode": "19104", "age": "25", "twitter": "chelseyloweco", "facebook": null, "instagram": null, "topicArray": ["Environment"], "typeArray": [""], "creationDate": "2017-08-09 17:58:08", "labLocation": "Light labs", "neighborhood": "University City,Belmont,Parkside,Powelton Village", "age_range": "20-29"}}, {"type": "Feature", "geometry": {"type": "Point", "coordinates": [-75.157886, 39.978706]}, "properties": {"name": "Cecil B Moore", "ref": "284", "researchID": "LLB22", "zipcode": "19104", "age": "25", "twitter": "chelseyloweco", "facebook": null, "instagram": null, "topicArray": ["Figure", "History", "Philadelphia", "Politics", "Social Justice"], "typeArray": ["Fountain", "Sculpture Statue"], "creationDate": "2017-08-09 17:58:10", "labLocation": "Light labs", "neighborhood": "University City,Belmont,Parkside,Powelton Village", "age_range": "20-29"}}, {"type": "Feature", "geometry": {"type": "Point", "coordinates": [-75.18317, 39.955328]}, "properties": {"name": "The Philadelphia \"Phuture\"", "ref": "285", "researchID": "LLB21", "zipcode": "19130", "age": "25", "twitter": null, "facebook": null, "instagram": "sky.sky_leach", "topicArray": ["Architecture", "History", "Philadelphia"], "typeArray": ["Mural"], "creationDate": "2017-08-09 17:58:12", "labLocation": "Light labs", "neighborhood": "Art Museum,Francisville", "age_range": "20-29"}}, {"type": "Feature", "geometry": {"type": "Point", "coordinates": [-75.222874, 39.986668]}, "properties": {"name": "Endangered Species Monument", "ref": "287", "researchID": "LLB24", "zipcode": "19026", "age": "12", "twitter": null, "facebook": null, "instagram": null, "topicArray": ["Animals"], "typeArray": ["Space"], "creationDate": "2017-08-09 18:00:03", "labLocation": "Light labs", "neighborhood": "", "age_range": "6-13"}}, {"type": "Feature", "geometry": {"type": "Point", "coordinates": [-75.127689, 39.981479]}, "properties": {"name": "Pilladelphia", "ref": "290", "researchID": "LLB25", "zipcode": "19104", "age": "23", "twitter": "camomilelin", "facebook": null, "instagram": null, "topicArray": ["Health"], "typeArray": [""], "creationDate": "2017-08-09 18:02:05", "labLocation": "Light labs", "neighborhood": "University City,Belmont,Parkside,Powelton Village", "age_range": "20-29"}}, {"type": "Feature", "geometry": {"type": "Point", "coordinates": [-75.149978, 39.952278]}, "properties": {"name": "Melting Pot", "ref": "291", "researchID": "LLB26", "zipcode": "19103", "age": "68", "twitter": null, "facebook": null, "instagram": null, "topicArray": ["African Americans", "Hispanic", "Unity", "Race Ethnicity"], "typeArray": ["Other No Form"], "creationDate": "2017-08-09 18:02:07", "labLocation": "Light labs", "neighborhood": "Rittenhouse Square,Avenue of The Arts,Logan Square,Fitler Square", "age_range": "60-69"}}, {"type": "Feature", "geometry": {"type": "Point", "coordinates": [-75.155337, 39.981135]}, "properties": {"name": "Hoop Trail, Hoop History", "ref": "295", "researchID": "LLB28", "zipcode": "19026", "age": "51", "twitter": null, "facebook": null, "instagram": null, "topicArray": ["Figure", "Philadelphia", "Sports"], "typeArray": ["Sculpture Statue"], "creationDate": "2017-08-09 18:04:07", "labLocation": "Light labs", "neighborhood": "", "age_range": "50-59"}}, {"type": "Feature", "geometry": {"type": "Point", "coordinates": [-75.182496, 39.951841]}, "properties": {"name": "Phillin' Myself", "ref": "296", "researchID": "LLB29", "zipcode": "90272", "age": "22", "twitter": null, "facebook": null, "instagram": null, "topicArray": ["Philadelphia"], "typeArray": ["Interactive"], "creationDate": "2017-08-09 18:04:09", "labLocation": "Light labs", "neighborhood": "", "age_range": "20-29"}}, {"type": "Feature", "geometry": {"type": "Point", "coordinates": [-75.16449206624, 39.95243464784]}, "properties": {"name": "Connect the Dots", "ref": "297", "researchID": "LLB27", "zipcode": "19119", "age": "73", "twitter": null, "facebook": null, "instagram": null, "topicArray": ["Art", "Philadelphia"], "typeArray": [""], "creationDate": "2017-08-09 18:04:11", "labLocation": "Light labs", "neighborhood": "Mount Airy", "age_range": "70+"}}, {"type": "Feature", "geometry": {"type": "Point", "coordinates": [-75.173075135087, 39.960527064829]}, "properties": {"name": "Full Circle", "ref": "300", "researchID": "LLB30", "zipcode": "19130", "age": "30", "twitter": null, "facebook": null, "instagram": null, "topicArray": ["Unity"], "typeArray": ["Interactive"], "creationDate": "2017-08-09 18:06:05", "labLocation": "Light labs", "neighborhood": "Art Museum,Francisville", "age_range": "30-39"}}, {"type": "Feature", "geometry": {"type": "Point", "coordinates": [-75.201423, 39.940335]}, "properties": {"name": "Name a neighborhood machine", "ref": "301", "researchID": "LLB32", "zipcode": "19148", "age": "20", "twitter": null, "facebook": null, "instagram": null, "topicArray": ["Neighborhoods"], "typeArray": ["Interactive"], "creationDate": "2017-08-09 18:06:07", "labLocation": "Light labs", "neighborhood": "Whitman,Pennsport,South Philadelphia", "age_range": "20-29"}}, {"type": "Feature", "geometry": {"type": "Point", "coordinates": [-75.159789, 39.939252]}, "properties": {"name": "Cannoli \"little tube\"", "ref": "303", "researchID": "LLB31", "zipcode": "19130", "age": "29", "twitter": null, "facebook": null, "instagram": "overly_sentimental_duh", "topicArray": ["Food"], "typeArray": ["Interactive"], "creationDate": "2017-08-09 18:06:11", "labLocation": "Light labs", "neighborhood": "Art Museum,Francisville", "age_range": "20-29"}}, {"type": "Feature", "geometry": {"type": "Point", "coordinates": [-75.162735, 39.944313]}, "properties": {"name": "Wild Goose Chase", "ref": "307", "researchID": "LLB34", "zipcode": "NJ08085", "age": "11", "twitter": null, "facebook": null, "instagram": null, "topicArray": ["Animals"], "typeArray": ["Conceptual"], "creationDate": "2017-08-09 18:08:08", "labLocation": "Light labs", "neighborhood": "", "age_range": "6-13"}}, {"type": "Feature", "geometry": {"type": "Point", "coordinates": [-75.172783, 39.960599]}, "properties": {"name": "Sky Beans", "ref": "308", "researchID": "LLB33", "zipcode": "19130", "age": "31", "twitter": null, "facebook": null, "instagram": null, "topicArray": ["Philadelphia"], "typeArray": ["Fountain", "Conceptual"], "creationDate": "2017-08-09 18:08:10", "labLocation": "Light labs", "neighborhood": "Art Museum,Francisville", "age_range": "30-39"}}, {"type": "Feature", "geometry": {"type": "Point", "coordinates": [-75.194907, 39.974614]}, "properties": {"name": "Runaway Chase", "ref": "309", "researchID": "LLB35", "zipcode": "NJ08085", "age": "6", "twitter": null, "facebook": null, "instagram": null, "topicArray": ["Animals"], "typeArray": ["Conceptual"], "creationDate": "2017-08-09 18:08:12", "labLocation": "Light labs", "neighborhood": "", "age_range": "6-13"}}, {"type": "Feature", "geometry": {"type": "Point", "coordinates": [-75.151561, 39.94754]}, "properties": {"name": "Tub O' Cheese", "ref": "311", "researchID": "LLB36", "zipcode": "", "age": "22", "twitter": null, "facebook": null, "instagram": null, "topicArray": ["Food"], "typeArray": [""], "creationDate": "2017-08-10 17:44:03", "labLocation": "Light labs", "neighborhood": "", "age_range": "20-29"}}, {"type": "Feature", "geometry": {"type": "Point", "coordinates": [-75.196392, 39.9928]}, "properties": {"name": "Tower of Peace", "ref": "312", "researchID": "LLB37", "zipcode": "", "age": null, "twitter": null, "facebook": null, "instagram": null, "topicArray": ["Uplifting"], "typeArray": ["Sculpture Statue"], "creationDate": "2017-08-10 17:44:05", "labLocation": "Light labs", "neighborhood": "", "age_range": ""}}, {"type": "Feature", "geometry": {"type": "Point", "coordinates": [-75.163951, 39.949317]}, "properties": {"name": "Deep \"Phallic\"", "ref": "316", "researchID": "LLB39", "zipcode": "NJ08021", "age": null, "twitter": null, "facebook": null, "instagram": null, "topicArray": ["Unknown"], "typeArray": ["Other No Form"], "creationDate": "2017-08-10 17:46:05", "labLocation": "Light labs", "neighborhood": "", "age_range": ""}}, {"type": "Feature", "geometry": {"type": "Point", "coordinates": [-75.152678, 39.942075]}, "properties": {"name": "A Monument Commemorating  WEB Dubois Work: A Phila Negro", "ref": "317", "researchID": "LLB38", "zipcode": "", "age": "40", "twitter": null, "facebook": null, "instagram": null, "topicArray": ["African Americans", "Figure", "History", "Social Justice"], "typeArray": ["Sculpture Statue"], "creationDate": "2017-08-10 17:46:07", "labLocation": "Light labs", "neighborhood": "", "age_range": "40-49"}}, {"type": "Feature", "geometry": {"type": "Point", "coordinates": [-75.144722, 39.941067]}, "properties": {"name": "The Love of Learning or For the Love of it", "ref": "318", "researchID": "LLB40", "zipcode": "NJ07111", "age": "41", "twitter": null, "facebook": null, "instagram": null, "topicArray": ["Art", "Education", "History"], "typeArray": ["Museum"], "creationDate": "2017-08-15 15:34:01", "labLocation": "Light labs", "neighborhood": "", "age_range": "40-49"}}, {"type": "Feature", "geometry": {"type": "Point", "coordinates": [-75.15411, 39.9439213]}, "properties": {"name": "Wheelie King", "ref": "410", "researchID": "LLA20", "zipcode": "19050", "age": "16 ", "twitter": null, "facebook": null, "instagram": null, "topicArray": ["Youth"], "typeArray": ["Other No Form"], "creationDate": "2017-08-26 13:38:07", "labLocation": "Light labs", "neighborhood": "", "age_range": "13-19"}}, {"type": "Feature", "geometry": {"type": "Point", "coordinates": [-75.20950556848, 39.930438832566]}, "properties": {"name": "\"Hidden River\" Screening the past", "ref": "412", "researchID": "LLB41", "zipcode": "", "age": null, "twitter": null, "facebook": null, "instagram": null, "topicArray": ["History", "Philadelphia"], "typeArray": ["Projection", "Image"], "creationDate": "2017-08-26 16:04:06", "labLocation": "Light labs", "neighborhood": "", "age_range": ""}}, {"type": "Feature", "geometry": {"type": "Point", "coordinates": [-75.17112, 39.917927]}, "properties": {"name": "The Heart Witin", "ref": "423", "researchID": "LLB42", "zipcode": "19028", "age": "19", "twitter": null, "facebook": null, "instagram": null, "topicArray": ["Art", "Philadelphia"], "typeArray": ["Conceptual", "Sculpture Statue"], "creationDate": "2017-09-01 22:16:01", "labLocation": "Light labs", "neighborhood": "", "age_range": "13-19"}}, {"type": "Feature", "geometry": {"type": "Point", "coordinates": [-75.173446, 39.983804]}, "properties": {"name": "It Starts With You", "ref": "424", "researchID": "LLB43", "zipcode": "19121", "age": "18", "twitter": "akidnamedkelz", "facebook": null, "instagram": "akidnamedkelz", "topicArray": ["Inclusivity", "Uplifting"], "typeArray": ["Interactive", "Conceptual", "Sculpture Statue"], "creationDate": "2017-09-01 22:22:01", "labLocation": "Light labs", "neighborhood": "Brewerytown", "age_range": "13-19"}}, {"type": "Feature", "geometry": {"type": "Point", "coordinates": [-75.113417, 39.996485]}, "properties": {"name": "\"Healing\"", "ref": "425", "researchID": "LLB44", "zipcode": "19104", "age": "25", "twitter": null, "facebook": null, "instagram": null, "topicArray": ["Health", "Neighborhoods", "Sanitation", "Uplifting"], "typeArray": ["Interactive", "Sculpture Statue"], "creationDate": "2017-09-01 22:30:01", "labLocation": "Light labs", "neighborhood": "University City,Belmont,Parkside,Powelton Village", "age_range": "20-29"}}, {"type": "Feature", "geometry": {"type": "Point", "coordinates": [-75.193744908307, 39.980869012699]}, "properties": {"name": "Untitled", "ref": "426", "researchID": "LLB45", "zipcode": "", "age": null, "twitter": null, "facebook": null, "instagram": null, "topicArray": [""], "typeArray": [""], "creationDate": "2017-09-01 23:02:01", "labLocation": "Light labs", "neighborhood": "", "age_range": ""}}, {"type": "Feature", "geometry": {"type": "Point", "coordinates": [-75.172976563906, 39.96041193553]}, "properties": {"name": "Say Their Names", "ref": "427", "researchID": "LLB47", "zipcode": "19143", "age": "37", "twitter": null, "facebook": null, "instagram": null, "topicArray": ["Neighborhoods", "Philadelphia"], "typeArray": ["Interactive"], "creationDate": "2017-09-01 23:04:01", "labLocation": "Light labs", "neighborhood": "University City", "age_range": "30-39"}}, {"type": "Feature", "geometry": {"type": "Point", "coordinates": [-75.130289207436, 39.973272324113]}, "properties": {"name": "The Beauty of Nature", "ref": "429", "researchID": "LLB48", "zipcode": "19125", "age": "4", "twitter": null, "facebook": null, "instagram": null, "topicArray": ["Environment"], "typeArray": ["Conceptual"], "creationDate": "2017-09-01 23:04:05", "labLocation": "Light labs", "neighborhood": "Fishtown,Kensington", "age_range": "<6"}}, {"type": "Feature", "geometry": {"type": "Point", "coordinates": [-75.203073631262, 39.9842231259]}, "properties": {"name": "Sounds of Philly", "ref": "430", "researchID": "LLB50", "zipcode": "19104", "age": "41", "twitter": null, "facebook": null, "instagram": null, "topicArray": ["Environment"], "typeArray": ["Interactive", "Conceptual", "Song Sound"], "creationDate": "2017-09-01 23:06:01", "labLocation": "Light labs", "neighborhood": "University City,Belmont,Parkside,Powelton Village", "age_range": "40-49"}}, {"type": "Feature", "geometry": {"type": "Point", "coordinates": [-75.164562809502, 39.948207130586]}, "properties": {"name": "Lady Independence", "ref": "432", "researchID": "LLB51", "zipcode": "19107", "age": "37", "twitter": null, "facebook": null, "instagram": null, "topicArray": ["History", "Religion", "Unity", "Freedom"], "typeArray": ["Sculpture Statue"], "creationDate": "2017-09-01 23:08:01", "labLocation": "Light labs", "neighborhood": "Washington Square West,Avenue of The Arts,Midtown Village,Chinatown", "age_range": "30-39"}}, {"type": "Feature", "geometry": {"type": "Point", "coordinates": [-75.199506293272, 39.981016991753]}, "properties": {"name": "Seating Unit", "ref": "433", "researchID": "LLB52", "zipcode": "19128", "age": "39", "twitter": null, "facebook": null, "instagram": null, "topicArray": ["Technology"], "typeArray": ["Interactive", "Bench"], "creationDate": "2017-09-01 23:10:01", "labLocation": "Light labs", "neighborhood": "Roxborough", "age_range": "30-39"}}, {"type": "Feature", "geometry": {"type": "Point", "coordinates": [-75.23982525919, 39.994909153127]}, "properties": {"name": "Coco Chanel", "ref": "434", "researchID": "LLB53", "zipcode": "", "age": "18", "twitter": null, "facebook": null, "instagram": "kayycoan", "topicArray": ["Figure", "History", "Inequality", "Pop Culture", "Women"], "typeArray": ["Other No Form"], "creationDate": "2017-09-03 17:52:01", "labLocation": "Light labs", "neighborhood": "", "age_range": "13-19"}}, {"type": "Feature", "geometry": {"type": "Point", "coordinates": [-75.1607282, 39.958924]}, "properties": {"name": "Gears of Philly/ Makers Manufacturing", "ref": "437", "researchID": "LLB54", "zipcode": "19148", "age": "25", "twitter": null, "facebook": null, "instagram": null, "topicArray": ["History", "Industrial", "Philadelphia", "Unity"], "typeArray": ["Interactive", "Other No Form"], "creationDate": "2017-09-03 18:02:06", "labLocation": "Light labs", "neighborhood": "Whitman,Pennsport,South Philadelphia", "age_range": "20-29"}}, {"type": "Feature", "geometry": {"type": "Point", "coordinates": [-75.1522149, 39.9488703]}, "properties": {"name": "The House is Divided, Once Again", "ref": "439", "researchID": "LLB55", "zipcode": "94114", "age": "31", "twitter": null, "facebook": null, "instagram": null, "topicArray": ["Inequality", "Violence"], "typeArray": ["Conceptual", "Sculpture Statue"], "creationDate": "2017-09-03 18:06:07", "labLocation": "Light labs", "neighborhood": "", "age_range": "30-39"}}, {"type": "Feature", "geometry": {"type": "Point", "coordinates": [-75.1750015, 39.9606433]}, "properties": {"name": "Family Tables", "ref": "441", "researchID": "LLB56", "zipcode": "19119", "age": "43", "twitter": null, "facebook": null, "instagram": null, "topicArray": ["Family"], "typeArray": ["Interactive", "Space", "Bench"], "creationDate": "2017-09-03 18:08:07", "labLocation": "Light labs", "neighborhood": "Mount Airy", "age_range": "40-49"}}, {"type": "Feature", "geometry": {"type": "Point", "coordinates": [-75.1750015, 39.9606433]}, "properties": {"name": "Self-Reflection", "ref": "443", "researchID": "LLB57", "zipcode": "17901", "age": "13", "twitter": null, "facebook": null, "instagram": null, "topicArray": ["Pop Culture", "Technology"], "typeArray": ["Interactive"], "creationDate": "2017-09-03 18:10:07", "labLocation": "Light labs", "neighborhood": "", "age_range": "13-19"}}, {"type": "Feature", "geometry": {"type": "Point", "coordinates": [-75.1657883, 39.9523789]}, "properties": {"name": "Blueford", "ref": "445", "researchID": "LLB58", "zipcode": "19103", "age": "25", "twitter": "mcwelling", "facebook": null, "instagram": "@mcwelling", "topicArray": ["Figure", "History", "Philadelphia", "Technology"], "typeArray": ["Sculpture Statue"], "creationDate": "2017-09-03 18:12:07", "labLocation": "Light labs", "neighborhood": "Rittenhouse Square,Avenue of The Arts,Logan Square,Fitler Square", "age_range": "20-29"}}, {"type": "Feature", "geometry": {"type": "Point", "coordinates": [-75.164272572189, 39.953715029042]}, "properties": {"name": "Rizzo", "ref": "448", "researchID": "LLB59", "zipcode": "19103", "age": "57", "twitter": null, "facebook": null, "instagram": null, "topicArray": ["Politics"], "typeArray": ["Sculpture Statue"], "creationDate": "2017-09-03 18:40:01", "labLocation": "Light labs", "neighborhood": "Rittenhouse Square,Avenue of The Arts,Logan Square,Fitler Square", "age_range": "50-59"}}, {"type": "Feature", "geometry": {"type": "Point", "coordinates": [-75.1657883, 39.9523789]}, "properties": {"name": "Climbable", "ref": "451", "researchID": "LLB60", "zipcode": "19123", "age": "61", "twitter": null, "facebook": null, "instagram": null, "topicArray": ["Social Justice"], "typeArray": ["Event", "Interactive", "Space", "Protest"], "creationDate": "2017-09-03 18:42:07", "labLocation": "Light labs", "neighborhood": "Northern Liberties,Loft District", "age_range": "60-69"}}, {"type": "Feature", "geometry": {"type": "Point", "coordinates": [-75.1534537, 39.964539]}, "properties": {"name": "Memorial for Voltairine de Cleyre", "ref": "452", "researchID": "LLB61", "zipcode": "19123", "age": "61", "twitter": null, "facebook": null, "instagram": null, "topicArray": ["Figure", "History", "Social Justice", "Women"], "typeArray": ["Other No Form"], "creationDate": "2017-09-03 21:16:01", "labLocation": "Light labs", "neighborhood": "Northern Liberties,Loft District", "age_range": "60-69"}}, {"type": "Feature", "geometry": {"type": "Point", "coordinates": [-75.2080495, 39.9149572]}, "properties": {"name": "Mythical Crispin Antipedes", "ref": "453", "researchID": "LLB62", "zipcode": "19123", "age": "61", "twitter": null, "facebook": null, "instagram": null, "topicArray": ["Animals", "Culture", "Unity"], "typeArray": ["Other No Form"], "creationDate": "2017-09-03 21:16:07", "labLocation": "Light labs", "neighborhood": "Northern Liberties,Loft District", "age_range": "60-69"}}, {"type": "Feature", "geometry": {"type": "Point", "coordinates": [-75.1750015, 39.9606433]}, "properties": {"name": "\"We are one together\" or \"We fit like a puzzle\"", "ref": "454", "researchID": "LLB63", "zipcode": "19082", "age": "54", "twitter": null, "facebook": null, "instagram": null, "topicArray": ["Culture", "Unity", "Race Ethnicity"], "typeArray": ["Other No Form"], "creationDate": "2017-09-03 21:18:02", "labLocation": "Light labs", "neighborhood": "", "age_range": "50-59"}}, {"type": "Feature", "geometry": {"type": "Point", "coordinates": [-75.1731485, 39.9580029]}, "properties": {"name": "City of Sisterly Love", "ref": "456", "researchID": "LLB66", "zipcode": "19343", "age": "19", "twitter": null, "facebook": null, "instagram": "maddy.morley", "topicArray": ["Figure", "Health", "History", "Music", "Social Justice", "Women"], "typeArray": ["Other No Form"], "creationDate": "2017-09-03 21:22:01", "labLocation": "Light labs", "neighborhood": "", "age_range": "13-19"}}, {"type": "Feature", "geometry": {"type": "Point", "coordinates": [-75.1750015, 39.9606433]}, "properties": {"name": "Play Green", "ref": "457", "researchID": "LLB65", "zipcode": "19122", "age": "19", "twitter": "decisions.and.revisions", "facebook": null, "instagram": null, "topicArray": ["Environment", "Family", "Youth", "Sustainability"], "typeArray": ["Playground"], "creationDate": "2017-09-03 21:22:06", "labLocation": "Light labs", "neighborhood": "Yorktown,Old Kensington,Jinogi", "age_range": "13-19"}}, {"type": "Feature", "geometry": {"type": "Point", "coordinates": [-75.179985176063, 39.965148523748]}, "properties": {"name": "CHAMP", "ref": "458", "researchID": "LLB67", "zipcode": "19103", "age": "74", "twitter": null, "facebook": null, "instagram": null, "topicArray": ["Figure", "Sports"], "typeArray": ["Sculpture Statue"], "creationDate": "2017-09-03 21:22:12", "labLocation": "Light labs", "neighborhood": "Rittenhouse Square,Avenue of The Arts,Logan Square,Fitler Square", "age_range": "70+"}}, {"type": "Feature", "geometry": {"type": "Point", "coordinates": [-75.1855185, 39.9526631]}, "properties": {"name": "Millenial Growth / Philly Rennaissance", "ref": "459", "researchID": "LLB68", "zipcode": "19130", "age": "52", "twitter": null, "facebook": null, "instagram": null, "topicArray": ["Philadelphia", "Technology"], "typeArray": ["Sculpture Statue"], "creationDate": "2017-09-03 21:24:01", "labLocation": "Light labs", "neighborhood": "Art Museum,Francisville", "age_range": "50-59"}}, {"type": "Feature", "geometry": {"type": "Point", "coordinates": [-75.17212630365, 39.960362594343]}, "properties": {"name": "Nation on the road to unity", "ref": "460", "researchID": "LLB71", "zipcode": "", "age": "45", "twitter": null, "facebook": null, "instagram": null, "topicArray": ["Figure", "History", "Social Justice", "Unity"], "typeArray": ["Sculpture Statue"], "creationDate": "2017-09-03 21:28:02", "labLocation": "Light labs", "neighborhood": "", "age_range": "40-49"}}, {"type": "Feature", "geometry": {"type": "Point", "coordinates": [-75.151805888148, 39.952418198863]}, "properties": {"name": "Civil Servants", "ref": "461", "researchID": "LLB69", "zipcode": "NJ08096", "age": "59", "twitter": null, "facebook": null, "instagram": null, "topicArray": ["Philadelphia", "Uplifting"], "typeArray": ["Other No Form"], "creationDate": "2017-09-03 21:28:07", "labLocation": "Light labs", "neighborhood": "", "age_range": "50-59"}}, {"type": "Feature", "geometry": {"type": "Point", "coordinates": [-75.191470395064, 39.954095974154]}, "properties": {"name": "Innovative Philadelphia", "ref": "462", "researchID": "LLB70", "zipcode": "", "age": "37", "twitter": null, "facebook": null, "instagram": null, "topicArray": ["Art", "Philadelphia"], "typeArray": ["Sculpture Statue"], "creationDate": "2017-09-03 21:28:12", "labLocation": "Light labs", "neighborhood": "", "age_range": "30-39"}}, {"type": "Feature", "geometry": {"type": "Point", "coordinates": [-75.165477107496, 39.954091862011]}, "properties": {"name": "Our Black History", "ref": "463", "researchID": "LLB72", "zipcode": "19193", "age": "25", "twitter": null, "facebook": null, "instagram": null, "topicArray": ["African Americans", "Figure", "History"], "typeArray": ["Other No Form"], "creationDate": "2017-09-03 21:30:01", "labLocation": "Light labs", "neighborhood": "Chinatown, Washington Square West, Avenue of The Arts, Midtown Village ", "age_range": "20-29"}}, {"type": "Feature", "geometry": {"type": "Point", "coordinates": [-75.171960006685, 39.960263911862]}, "properties": {"name": "Kindness is Key", "ref": "464", "researchID": "LLB73", "zipcode": "", "age": "19", "twitter": null, "facebook": null, "instagram": null, "topicArray": ["Unity", "Uplifting"], "typeArray": ["Sculpture Statue"], "creationDate": "2017-09-03 21:34:01", "labLocation": "Light labs", "neighborhood": "", "age_range": "13-19"}}, {"type": "Feature", "geometry": {"type": "Point", "coordinates": [-75.2276214, 39.9526633]}, "properties": {"name": "[Untitled]", "ref": "1461", "researchID": "MX1", "zipcode": "19139", "age": "62", "twitter": null, "facebook": null, "instagram": null, "topicArray": ["History"], "typeArray": ["Sculpture Statue", "Other No Form"], "creationDate": "2017-09-16 17:50:01", "labLocation": "Malcolm X Park", "neighborhood": "Walnut Hill", "age_range": "60-69"}}, {"type": "Feature", "geometry": {"type": "Point", "coordinates": [-75.225394974684, 39.952632035257]}, "properties": {"name": "Mother Land", "ref": "1462", "researchID": "MX2", "zipcode": "19139", "age": "40", "twitter": null, "facebook": null, "instagram": null, "topicArray": ["African Americans", "Culture", "History"], "typeArray": ["Park"], "creationDate": "2017-09-16 17:52:01", "labLocation": "Malcolm X Park", "neighborhood": "Walnut Hill", "age_range": "40-49"}}, {"type": "Feature", "geometry": {"type": "Point", "coordinates": [-75.1545355, 39.9494264]}, "properties": {"name": "[Untitled]", "ref": "1463", "researchID": "mx3", "zipcode": "19139", "age": "62", "twitter": null, "facebook": null, "instagram": null, "topicArray": ["African Americans", "History"], "typeArray": ["Other No Form"], "creationDate": "2017-09-16 17:52:03", "labLocation": "Malcolm X Park", "neighborhood": "Walnut Hill", "age_range": "60-69"}}, {"type": "Feature", "geometry": {"type": "Point", "coordinates": [-75.2276214, 39.9526633]}, "properties": {"name": "Each One/ Teach One", "ref": "1464", "researchID": "mx4", "zipcode": "19139", "age": "36", "twitter": "saffy2922", "facebook": null, "instagram": null, "topicArray": ["Education", "Unity", "Uplifting"], "typeArray": ["Other No Form"], "creationDate": "2017-09-16 17:54:01", "labLocation": "Malcolm X Park", "neighborhood": "Walnut Hill", "age_range": "30-39"}}, {"type": "Feature", "geometry": {"type": "Point", "coordinates": [-75.225437890028, 39.952632035257]}, "properties": {"name": "[Untitled]", "ref": "1465", "researchID": "MX1", "zipcode": "19139", "age": "62", "twitter": null, "facebook": null, "instagram": null, "topicArray": ["Figure"], "typeArray": ["Park", "Other No Form"], "creationDate": "2017-09-16 17:54:04", "labLocation": "Malcolm X Park", "neighborhood": "Walnut Hill", "age_range": "60-69"}}, {"type": "Feature", "geometry": {"type": "Point", "coordinates": [-75.149756680463, 39.927542820892]}, "properties": {"name": "Dog Fountain", "ref": "1466", "researchID": "RS1", "zipcode": "19147", "age": "29", "twitter": null, "facebook": null, "instagram": null, "topicArray": ["Animals"], "typeArray": ["Fountain", "Park"], "creationDate": "2017-09-16 18:04:01", "labLocation": "Rittenhouse Square", "neighborhood": "Queen Village,Bella Vista,Pennsport,Italian Market", "age_range": "20-29"}}, {"type": "Feature", "geometry": {"type": "Point", "coordinates": [-75.1657936, 39.9523789]}, "properties": {"name": "Solidarity", "ref": "1467", "researchID": "mx5", "zipcode": "19104", "age": "39", "twitter": null, "facebook": null, "instagram": null, "topicArray": ["Unity"], "typeArray": ["Other No Form"], "creationDate": "2017-09-16 18:14:01", "labLocation": "Malcolm X Park", "neighborhood": "University City,Belmont,Parkside,Powelton Village", "age_range": "30-39"}}, {"type": "Feature", "geometry": {"type": "Point", "coordinates": [-75.173789273236, 39.960362594343]}, "properties": {"name": "AFeet'us", "ref": "1468", "researchID": "RS3", "zipcode": "19121", "age": "38", "twitter": null, "facebook": null, "instagram": null, "topicArray": ["Culture", "Women"], "typeArray": ["Fountain", "Sculpture Statue"], "creationDate": "2017-09-16 18:26:01", "labLocation": "Rittenhouse Square", "neighborhood": "Brewerytown", "age_range": "30-39"}}, {"type": "Feature", "geometry": {"type": "Point", "coordinates": [-75.149585019086, 39.951028246005]}, "properties": {"name": "Growth", "ref": "1469", "researchID": "RS2", "zipcode": "19103", "age": "70", "twitter": null, "facebook": null, "instagram": null, "topicArray": ["History"], "typeArray": ["Other No Form"], "creationDate": "2017-09-16 18:26:04", "labLocation": "Rittenhouse Square", "neighborhood": "Rittenhouse Square,Avenue of The Arts,Logan Square,Fitler Square", "age_range": "70+"}}, {"type": "Feature", "geometry": {"type": "Point", "coordinates": [-75.1740775, 39.9494818]}, "properties": {"name": "[Untitled]", "ref": "1470", "researchID": "RS4", "zipcode": "NJ08003", "age": "73", "twitter": null, "facebook": null, "instagram": null, "topicArray": ["History", "Women"], "typeArray": ["Other No Form"], "creationDate": "2017-09-16 18:28:01", "labLocation": "Rittenhouse Square", "neighborhood": "", "age_range": "70+"}}, {"type": "Feature", "geometry": {"type": "Point", "coordinates": [-75.2276214, 39.9526633]}, "properties": {"name": "Paul Robeson Monument", "ref": "1471", "researchID": "mx7", "zipcode": "19143", "age": "30", "twitter": null, "facebook": null, "instagram": null, "topicArray": ["Figure", "History", "Social Justice"], "typeArray": ["Other No Form"], "creationDate": "2017-09-16 18:30:01", "labLocation": "Malcolm X Park", "neighborhood": "University City", "age_range": "30-39"}}, {"type": "Feature", "geometry": {"type": "Point", "coordinates": [-75.141562531921, 39.944489331421]}, "properties": {"name": "Original People", "ref": "1472", "researchID": "MX6", "zipcode": "19143", "age": "26", "twitter": "pretzelpup", "facebook": null, "instagram": null, "topicArray": ["History", "Native Americans"], "typeArray": ["Sculpture Statue"], "creationDate": "2017-09-16 18:30:04", "labLocation": "Malcolm X Park", "neighborhood": "University City", "age_range": "20-29"}}, {"type": "Feature", "geometry": {"type": "Point", "coordinates": [-75.172016333079, 39.949292821429]}, "properties": {"name": "Jerry Garcia", "ref": "1473", "researchID": "RS5", "zipcode": "19301", "age": "56", "twitter": null, "facebook": null, "instagram": null, "topicArray": ["Figure", "Music"], "typeArray": ["Other No Form"], "creationDate": "2017-09-16 18:30:07", "labLocation": "Rittenhouse Square", "neighborhood": "", "age_range": "50-59"}}, {"type": "Feature", "geometry": {"type": "Point", "coordinates": [-75.22551299188, 39.952878768727]}, "properties": {"name": "Kayree Smith", "ref": "1474", "researchID": "MX8", "zipcode": "19142", "age": "32", "twitter": null, "facebook": null, "instagram": null, "topicArray": ["Neighborhoods", "Youth"], "typeArray": ["Community Resource Center", "Playground"], "creationDate": "2017-09-16 18:32:01", "labLocation": "Malcolm X Park", "neighborhood": "Elmwood,Southwest Philadelphia", "age_range": "30-39"}}, {"type": "Feature", "geometry": {"type": "Point", "coordinates": [-75.1654093, 39.9544135]}, "properties": {"name": "Sarah Mapps Douglass; Mineral Cabinet", "ref": "1475", "researchID": "RS8", "zipcode": "19103", "age": "36", "twitter": null, "facebook": null, "instagram": null, "topicArray": ["African Americans", "Education", "History", "Women"], "typeArray": ["Other No Form"], "creationDate": "2017-09-16 18:32:04", "labLocation": "Rittenhouse Square", "neighborhood": "Rittenhouse Square,Avenue of The Arts,Logan Square,Fitler Square", "age_range": "30-39"}}, {"type": "Feature", "geometry": {"type": "Point", "coordinates": [-75.150888572669, 39.947532677598]}, "properties": {"name": "Prison complex", "ref": "1476", "researchID": "RS7", "zipcode": "19003", "age": "34", "twitter": null, "facebook": null, "instagram": null, "topicArray": ["History", "Native Americans", "Violence"], "typeArray": ["Other No Form"], "creationDate": "2017-09-16 18:32:06", "labLocation": "Rittenhouse Square", "neighborhood": "", "age_range": "30-39"}}, {"type": "Feature", "geometry": {"type": "Point", "coordinates": [-75.1831601, 39.9655697]}, "properties": {"name": "Finally a Accurate Representation of History", "ref": "1477", "researchID": "RS6", "zipcode": "19151", "age": "33", "twitter": null, "facebook": null, "instagram": null, "topicArray": ["African Americans", "History"], "typeArray": ["Sculpture Statue"], "creationDate": "2017-09-16 18:32:09", "labLocation": "Rittenhouse Square", "neighborhood": "Overbrook,Overbrook Farms,Overbrook Park", "age_range": "30-39"}}, {"type": "Feature", "geometry": {"type": "Point", "coordinates": [-75.2276214, 39.9526633]}, "properties": {"name": "Sculpture Sculpture", "ref": "1478", "researchID": "mx9", "zipcode": "", "age": "5", "twitter": null, "facebook": null, "instagram": null, "topicArray": ["Unknown"], "typeArray": ["Other No Form"], "creationDate": "2017-09-16 18:32:11", "labLocation": "Malcolm X Park", "neighborhood": "", "age_range": "<6"}}, {"type": "Feature", "geometry": {"type": "Point", "coordinates": [-75.171871493791, 39.949469655806]}, "properties": {"name": "Fountain of Freedom", "ref": "1479", "researchID": "RS9", "zipcode": "19422", "age": "19", "twitter": null, "facebook": null, "instagram": null, "topicArray": ["Figure", "History", "Social Justice", "Race Ethnicity"], "typeArray": ["Fountain"], "creationDate": "2017-09-16 18:34:02", "labLocation": "Rittenhouse Square", "neighborhood": "", "age_range": "13-19"}}, {"type": "Feature", "geometry": {"type": "Point", "coordinates": [-75.1648958, 39.9526944]}, "properties": {"name": "Contention", "ref": "1480", "researchID": "RS10", "zipcode": "19146", "age": "48", "twitter": "@BrettMandel", "facebook": null, "instagram": null, "topicArray": ["Unknown"], "typeArray": ["Other No Form"], "creationDate": "2017-09-16 18:34:04", "labLocation": "Rittenhouse Square", "neighborhood": "Graduate Hospital,Naval Square,Southwest Center City", "age_range": "40-49"}}, {"type": "Feature", "geometry": {"type": "Point", "coordinates": [-75.171911726927, 39.949391519742]}, "properties": {"name": "Liberty", "ref": "1481", "researchID": "RS11", "zipcode": "19046", "age": null, "twitter": null, "facebook": null, "instagram": null, "topicArray": ["Culture", "Unity", "Youth", "Race Ethnicity"], "typeArray": ["Other No Form"], "creationDate": "2017-09-16 18:36:01", "labLocation": "Rittenhouse Square", "neighborhood": "", "age_range": ""}}, {"type": "Feature", "geometry": {"type": "Point", "coordinates": [-75.162856589291, 39.955675019185]}, "properties": {"name": "Phor the Love", "ref": "1484", "researchID": "LS1", "zipcode": "19148", "age": "29", "twitter": null, "facebook": null, "instagram": null, "topicArray": ["Philadelphia", "Uplifting"], "typeArray": ["Sculpture Statue"], "creationDate": "2017-09-16 18:44:01", "labLocation": "Logan Circle", "neighborhood": "Whitman,Pennsport,South Philadelphia", "age_range": "20-29"}}, {"type": "Feature", "geometry": {"type": "Point", "coordinates": [-75.174246, 39.9956764]}, "properties": {"name": "Lack of Jobs", "ref": "1485", "researchID": "LS2", "zipcode": "NJ08701", "age": "38", "twitter": null, "facebook": null, "instagram": null, "topicArray": ["Inequality", "Unknown", "Violence"], "typeArray": ["Other No Form"], "creationDate": "2017-09-16 18:50:01", "labLocation": "Logan Circle", "neighborhood": "", "age_range": "30-39"}}, {"type": "Feature", "geometry": {"type": "Point", "coordinates": [-75.149453590847, 39.951110492523]}, "properties": {"name": "Feather in a Cap!", "ref": "1486", "researchID": "LS3", "zipcode": "19151", "age": "47", "twitter": null, "facebook": null, "instagram": null, "topicArray": ["Culture", "History", "Inclusivity", "Native Americans", "Unity"], "typeArray": ["Sculpture Statue"], "creationDate": "2017-09-16 19:04:02", "labLocation": "Logan Circle", "neighborhood": "Overbrook,Overbrook Farms,Overbrook Park", "age_range": "40-49"}}, {"type": "Feature", "geometry": {"type": "Point", "coordinates": [-75.1789109, 40.0356086]}, "properties": {"name": "[Untitled]", "ref": "1487", "researchID": "VP1", "zipcode": "19144", "age": "27", "twitter": null, "facebook": null, "instagram": "a-skeet11.11", "topicArray": ["Unity", "Unknown"], "typeArray": ["Other No Form"], "creationDate": "2017-09-16 19:20:01", "labLocation": "Vernon Park", "neighborhood": "Germantown", "age_range": "20-29"}}, {"type": "Feature", "geometry": {"type": "Point", "coordinates": [-75.164487372371, 39.953742328865]}, "properties": {"name": "Mayors Plaza", "ref": "1492", "researchID": "WS1", "zipcode": "19106", "age": "67", "twitter": null, "facebook": null, "instagram": null, "topicArray": ["Figure", "History", "Inclusivity", "Unity"], "typeArray": ["Interactive", "Sculpture Statue", "Other No Form"], "creationDate": "2017-09-16 19:34:02", "labLocation": "Washington Square", "neighborhood": "Society Hill,Old City", "age_range": "60-69"}}, {"type": "Feature", "geometry": {"type": "Point", "coordinates": [-75.225362788175, 39.952615586328]}, "properties": {"name": "Wake Up Martymoment", "ref": "1493", "researchID": "MX10", "zipcode": "19139", "age": "65", "twitter": null, "facebook": null, "instagram": null, "topicArray": ["History", "Philadelphia"], "typeArray": ["2D", "Other No Form"], "creationDate": "2017-09-16 19:38:01", "labLocation": "Malcolm X Park", "neighborhood": "Walnut Hill", "age_range": "60-69"}}, {"type": "Feature", "geometry": {"type": "Point", "coordinates": [-75.193347941373, 39.947121422513]}, "properties": {"name": "[Untitled]", "ref": "1495", "researchID": "PT3", "zipcode": "19142", "age": "32", "twitter": null, "facebook": null, "instagram": null, "topicArray": ["Health", "Technology"], "typeArray": ["Other No Form"], "creationDate": "2017-09-16 19:54:01", "labLocation": "Penn Treaty Park", "neighborhood": "Elmwood,Southwest Philadelphia", "age_range": "30-39"}}, {"type": "Feature", "geometry": {"type": "Point", "coordinates": [-75.1306735, 39.966278]}, "properties": {"name": "Animal Hotel", "ref": "1496", "researchID": "PT1", "zipcode": "19125", "age": "7", "twitter": null, "facebook": null, "instagram": null, "topicArray": ["Animals", "Environment"], "typeArray": ["Park", "Other No Form"], "creationDate": "2017-09-16 19:54:04", "labLocation": "Penn Treaty Park", "neighborhood": "Fishtown,Kensington", "age_range": "6-13"}}, {"type": "Feature", "geometry": {"type": "Point", "coordinates": [-75.150443325972, 39.955415137209]}, "properties": {"name": "Flower Monument", "ref": "1498", "researchID": "FS2", "zipcode": "", "age": "9", "twitter": null, "facebook": null, "instagram": null, "topicArray": ["Environment", "Uplifting", "Youth"], "typeArray": ["Park", "Other No Form"], "creationDate": "2017-09-16 20:20:02", "labLocation": "Franklin Square", "neighborhood": "", "age_range": "6-13"}}, {"type": "Feature", "geometry": {"type": "Point", "coordinates": [-75.1657936, 39.9523789]}, "properties": {"name": "Peace is Power", "ref": "1499", "researchID": "WS2", "zipcode": "19106", "age": "89", "twitter": null, "facebook": null, "instagram": null, "topicArray": ["Culture", "Globalism", "Unity"], "typeArray": ["Other No Form"], "creationDate": "2017-09-16 20:28:01", "labLocation": "Washington Square", "neighborhood": "Society Hill,Old City", "age_range": "70+"}}, {"type": "Feature", "geometry": {"type": "Point", "coordinates": [-75.225448618864, 39.952582688456]}, "properties": {"name": "Tree of Time", "ref": "1500", "researchID": "PT4", "zipcode": "19023", "age": "15", "twitter": null, "facebook": null, "instagram": null, "topicArray": ["Uplifting"], "typeArray": ["Tree", "Park"], "creationDate": "2017-09-16 20:34:01", "labLocation": "Penn Treaty Park", "neighborhood": "", "age_range": "13-19"}}, {"type": "Feature", "geometry": {"type": "Point", "coordinates": [-75.150625716184, 39.955477640549]}, "properties": {"name": "The U.S.A. Flag!", "ref": "1501", "researchID": "FS1", "zipcode": "", "age": "10", "twitter": null, "facebook": null, "instagram": null, "topicArray": ["Armed Forces"], "typeArray": ["Other No Form", "Memorial"], "creationDate": "2017-09-16 20:34:05", "labLocation": "Franklin Square", "neighborhood": "", "age_range": "6-13"}}, {"type": "Feature", "geometry": {"type": "Point", "coordinates": [-75.156183253267, 39.961760580866]}, "properties": {"name": "Folks", "ref": "1502", "researchID": "FS3", "zipcode": "19123", "age": "24", "twitter": null, "facebook": null, "instagram": null, "topicArray": ["Inclusivity", "Philadelphia"], "typeArray": ["Other No Form"], "creationDate": "2017-09-16 20:36:01", "labLocation": "Franklin Square", "neighborhood": "Northern Liberties,Loft District", "age_range": "20-29"}}, {"type": "Feature", "geometry": {"type": "Point", "coordinates": [-75.129661570528, 39.974554941178]}, "properties": {"name": "Tent for the Homeless", "ref": "1503", "researchID": "PT5", "zipcode": "19125", "age": "45", "twitter": null, "facebook": null, "instagram": null, "topicArray": ["Unknown"], "typeArray": ["Other No Form"], "creationDate": "2017-09-16 20:36:04", "labLocation": "Penn Treaty Park", "neighborhood": "Fishtown,Kensington", "age_range": "40-49"}}, {"type": "Feature", "geometry": {"type": "Point", "coordinates": [-75.1306682, 39.9662739]}, "properties": {"name": "What there is", "ref": "1504", "researchID": "PT2", "zipcode": "19125", "age": "10", "twitter": null, "facebook": null, "instagram": null, "topicArray": ["Animals"], "typeArray": ["Tree"], "creationDate": "2017-09-16 20:36:07", "labLocation": "Penn Treaty Park", "neighborhood": "Fishtown,Kensington", "age_range": "6-13"}}, {"type": "Feature", "geometry": {"type": "Point", "coordinates": [-75.150132189728, 39.955625674579]}, "properties": {"name": "Allen Iverson Statue", "ref": "1505", "researchID": "FS4", "zipcode": "19138", "age": "35", "twitter": null, "facebook": null, "instagram": null, "topicArray": ["African Americans", "Figure", "Sports"], "typeArray": ["Sculpture Statue", "Other No Form"], "creationDate": "2017-09-16 20:36:10", "labLocation": "Franklin Square", "neighborhood": "West Oak Lane", "age_range": "30-39"}}, {"type": "Feature", "geometry": {"type": "Point", "coordinates": [-75.160431872342, 39.957599431024]}, "properties": {"name": "The Crooner", "ref": "1506", "researchID": "FS5", "zipcode": "", "age": "39", "twitter": null, "facebook": null, "instagram": null, "topicArray": ["Culture", "Figure", "Music", "Philadelphia", "Race Ethnicity"], "typeArray": ["Other No Form"], "creationDate": "2017-09-16 20:38:01", "labLocation": "Franklin Square", "neighborhood": "", "age_range": "30-39"}}, {"type": "Feature", "geometry": {"type": "Point", "coordinates": [-75.128717432953, 39.965970814662]}, "properties": {"name": "fittness monument", "ref": "1507", "researchID": "PT7", "zipcode": "19125", "age": "13", "twitter": null, "facebook": null, "instagram": null, "topicArray": ["Health", "Sports", "Unknown"], "typeArray": ["Other No Form"], "creationDate": "2017-09-16 20:38:04", "labLocation": "Penn Treaty Park", "neighborhood": "Fishtown,Kensington", "age_range": "13-19"}}, {"type": "Feature", "geometry": {"type": "Point", "coordinates": [-75.1306735, 39.9662739]}, "properties": {"name": "Homeless Awareness", "ref": "1508", "researchID": "PT6", "zipcode": "19125", "age": "13", "twitter": null, "facebook": null, "instagram": null, "topicArray": ["Unity"], "typeArray": ["Other No Form"], "creationDate": "2017-09-16 20:38:07", "labLocation": "Penn Treaty Park", "neighborhood": "Fishtown,Kensington", "age_range": "13-19"}}, {"type": "Feature", "geometry": {"type": "Point", "coordinates": [-75.136785517663, 39.960625746932]}, "properties": {"name": "Indigo Child", "ref": "1509", "researchID": "FS6", "zipcode": "19138", "age": "36", "twitter": null, "facebook": null, "instagram": null, "topicArray": ["Native Americans", "Unity", "Youth"], "typeArray": ["Other No Form"], "creationDate": "2017-09-16 20:38:09", "labLocation": "Franklin Square", "neighborhood": "West Oak Lane", "age_range": "30-39"}}, {"type": "Feature", "geometry": {"type": "Point", "coordinates": [-75.150486241315, 39.955441454455]}, "properties": {"name": "Humanity", "ref": "1510", "researchID": "FS7", "zipcode": "19403", "age": "35", "twitter": null, "facebook": null, "instagram": null, "topicArray": ["Animals", "Unity"], "typeArray": ["Other No Form"], "creationDate": "2017-09-16 20:40:01", "labLocation": "Franklin Square", "neighborhood": "", "age_range": "30-39"}}, {"type": "Feature", "geometry": {"type": "Point", "coordinates": [-75.134596835111, 39.952977461866]}, "properties": {"name": "The Love Project", "ref": "1511", "researchID": "NS1", "zipcode": "19140", "age": "52", "twitter": null, "facebook": null, "instagram": null, "topicArray": ["Culture", "Inclusivity", "Philadelphia", "Unity", "Uplifting", "Love", "Race Ethnicity"], "typeArray": ["Plaque", "Other No Form"], "creationDate": "2017-09-16 20:42:01", "labLocation": "Norris Square", "neighborhood": "Hunting Park", "age_range": "50-59"}}, {"type": "Feature", "geometry": {"type": "Point", "coordinates": [-75.1306735, 39.966278]}, "properties": {"name": "Knowledge Monument", "ref": "1512", "researchID": "PT8", "zipcode": "19125", "age": "13", "twitter": null, "facebook": null, "instagram": null, "topicArray": ["Education", "Youth"], "typeArray": ["Other No Form"], "creationDate": "2017-09-16 20:42:04", "labLocation": "Penn Treaty Park", "neighborhood": "Fishtown,Kensington", "age_range": "13-19"}}, {"type": "Feature", "geometry": {"type": "Point", "coordinates": [-75.1306735, 39.966278]}, "properties": {"name": "Fitness Monument", "ref": "1513", "researchID": "PT7", "zipcode": "19125", "age": "13", "twitter": null, "facebook": null, "instagram": null, "topicArray": ["Health"], "typeArray": ["Other No Form"], "creationDate": "2017-09-16 20:42:06", "labLocation": "Penn Treaty Park", "neighborhood": "Fishtown,Kensington", "age_range": "13-19"}}, {"type": "Feature", "geometry": {"type": "Point", "coordinates": [-75.150486241315, 39.955336185411]}, "properties": {"name": "Poenopqr (pronounced Ponton)", "ref": "1514", "researchID": "FS8", "zipcode": "", "age": "4", "twitter": null, "facebook": null, "instagram": null, "topicArray": ["Animals"], "typeArray": ["Other No Form"], "creationDate": "2017-09-16 20:42:08", "labLocation": "Franklin Square", "neighborhood": "", "age_range": "<6"}}, {"type": "Feature", "geometry": {"type": "Point", "coordinates": [-75.150400410627, 39.955431585528]}, "properties": {"name": "YouTube Monument", "ref": "1515", "researchID": "FS9", "zipcode": "", "age": "11", "twitter": null, "facebook": null, "instagram": null, "topicArray": ["Immigration", "Technology", "Unity"], "typeArray": ["Digital", "Other No Form"], "creationDate": "2017-09-16 20:44:02", "labLocation": "Franklin Square", "neighborhood": "", "age_range": "6-13"}}, {"type": "Feature", "geometry": {"type": "Point", "coordinates": [-75.170769105886, 39.95715534079]}, "properties": {"name": "Global Warming", "ref": "1516", "researchID": "PT9", "zipcode": "19125", "age": "13", "twitter": null, "facebook": null, "instagram": null, "topicArray": ["Environment"], "typeArray": [""], "creationDate": "2017-09-16 20:44:04", "labLocation": "Penn Treaty Park", "neighborhood": "Fishtown,Kensington", "age_range": "13-19"}}, {"type": "Feature", "geometry": {"type": "Point", "coordinates": [-75.163580785726, 39.952393525389]}, "properties": {"name": "Gold Eagle Monument", "ref": "1517", "researchID": "FS10", "zipcode": "19138", "age": "8", "twitter": null, "facebook": null, "instagram": null, "topicArray": ["Freedom"], "typeArray": ["Other No Form"], "creationDate": "2017-09-16 20:46:01", "labLocation": "Franklin Square", "neighborhood": "West Oak Lane", "age_range": "6-13"}}, {"type": "Feature", "geometry": {"type": "Point", "coordinates": [-75.1697799, 39.9225929]}, "properties": {"name": "Dino Monument", "ref": "1519", "researchID": "FS11", "zipcode": "19138", "age": "4", "twitter": null, "facebook": null, "instagram": null, "topicArray": ["Animals"], "typeArray": ["Other No Form"], "creationDate": "2017-09-16 20:46:06", "labLocation": "Franklin Square", "neighborhood": "West Oak Lane", "age_range": "<6"}}, {"type": "Feature", "geometry": {"type": "Point", "coordinates": [-75.1306735, 39.966278]}, "properties": {"name": "Scientific Innovation", "ref": "1520", "researchID": "PT10", "zipcode": "19125", "age": "13", "twitter": null, "facebook": null, "instagram": null, "topicArray": ["Technology"], "typeArray": ["Other No Form"], "creationDate": "2017-09-16 20:46:08", "labLocation": "Penn Treaty Park", "neighborhood": "Fishtown,Kensington", "age_range": "13-19"}}, {"type": "Feature", "geometry": {"type": "Point", "coordinates": [-75.129077585636, 39.966286222822]}, "properties": {"name": "Deforestation Monument", "ref": "1521", "researchID": "PT11", "zipcode": "19125", "age": "13", "twitter": null, "facebook": null, "instagram": null, "topicArray": ["Environment", "Sustainability"], "typeArray": ["Tree"], "creationDate": "2017-09-16 20:48:01", "labLocation": "Penn Treaty Park", "neighborhood": "Fishtown,Kensington", "age_range": "13-19"}}, {"type": "Feature", "geometry": {"type": "Point", "coordinates": [-75.13489723245, 39.98230868301]}, "properties": {"name": "George Washington", "ref": "1522", "researchID": "NS2", "zipcode": "", "age": "6", "twitter": null, "facebook": null, "instagram": null, "topicArray": ["Figure", "History"], "typeArray": ["Other No Form"], "creationDate": "2017-09-16 20:48:03", "labLocation": "Norris Square", "neighborhood": "", "age_range": "6-13"}}, {"type": "Feature", "geometry": {"type": "Point", "coordinates": [-75.150400410627, 39.95547764055]}, "properties": {"name": "[Untitled]", "ref": "1523", "researchID": "FS12", "zipcode": "", "age": null, "twitter": null, "facebook": null, "instagram": null, "topicArray": ["Figure", "Music"], "typeArray": ["Other No Form"], "creationDate": "2017-09-16 20:48:05", "labLocation": "Franklin Square", "neighborhood": "", "age_range": ""}}, {"type": "Feature", "geometry": {"type": "Point", "coordinates": [-75.1306735, 39.966278]}, "properties": {"name": "Divine Trinity", "ref": "1524", "researchID": "PT12", "zipcode": "19124", "age": "50", "twitter": null, "facebook": null, "instagram": null, "topicArray": ["Religion"], "typeArray": ["Other No Form"], "creationDate": "2017-09-16 20:48:08", "labLocation": "Penn Treaty Park", "neighborhood": "Juniata,Frankford,Feltonville", "age_range": "50-59"}}, {"type": "Feature", "geometry": {"type": "Point", "coordinates": [-75.1368747, 39.982684]}, "properties": {"name": "Enfaci", "ref": "1525", "researchID": "NS4", "zipcode": "", "age": "30", "twitter": null, "facebook": null, "instagram": null, "topicArray": ["Environment", "Sustainability"], "typeArray": ["Tree"], "creationDate": "2017-09-16 20:50:01", "labLocation": "Norris Square", "neighborhood": "", "age_range": "30-39"}}, {"type": "Feature", "geometry": {"type": "Point", "coordinates": [-75.1306735, 39.966278]}, "properties": {"name": "[Untitled]", "ref": "1526", "researchID": "PT13", "zipcode": "19124", "age": "12", "twitter": null, "facebook": null, "instagram": null, "topicArray": ["Environment"], "typeArray": ["Other No Form"], "creationDate": "2017-09-16 20:50:05", "labLocation": "Penn Treaty Park", "neighborhood": "Juniata,Frankford,Feltonville", "age_range": "6-13"}}, {"type": "Feature", "geometry": {"type": "Point", "coordinates": [-75.129178772901, 39.966069488908]}, "properties": {"name": "Skateboard", "ref": "1527", "researchID": "PT14", "zipcode": "19125", "age": "8", "twitter": null, "facebook": null, "instagram": null, "topicArray": ["Sports", "Unknown", "Youth"], "typeArray": ["Park", "Playground", "Other No Form"], "creationDate": "2017-09-16 20:52:01", "labLocation": "Penn Treaty Park", "neighborhood": "Fishtown,Kensington", "age_range": "6-13"}}, {"type": "Feature", "geometry": {"type": "Point", "coordinates": [-75.1306735, 39.966278]}, "properties": {"name": "Zombie Statue", "ref": "1528", "researchID": "PT15", "zipcode": "19124", "age": "12", "twitter": null, "facebook": null, "instagram": null, "topicArray": ["Unknown"], "typeArray": ["Other No Form"], "creationDate": "2017-09-16 20:54:01", "labLocation": "Penn Treaty Park", "neighborhood": "Juniata,Frankford,Feltonville", "age_range": "6-13"}}, {"type": "Feature", "geometry": {"type": "Point", "coordinates": [-75.152369152043, 39.94680064183]}, "properties": {"name": "Stoops @ Wash Sq", "ref": "1529", "researchID": "WS3", "zipcode": "19128", "age": "47", "twitter": null, "facebook": null, "instagram": null, "topicArray": ["Culture", "Neighborhoods", "Unity", "Uplifting"], "typeArray": ["Building", "Infrastructure", "Interactive"], "creationDate": "2017-09-16 20:56:02", "labLocation": "Washington Square", "neighborhood": "Roxborough", "age_range": "40-49"}}, {"type": "Feature", "geometry": {"type": "Point", "coordinates": [-75.150378952955, 39.955115778239]}, "properties": {"name": "Let Freedom Ring Around The Rosie", "ref": "1531", "researchID": "FS14", "zipcode": "", "age": "33", "twitter": null, "facebook": null, "instagram": null, "topicArray": ["Figure", "Food", "History", "Philadelphia", "Youth"], "typeArray": ["Other No Form"], "creationDate": "2017-09-16 20:56:06", "labLocation": "Franklin Square", "neighborhood": "", "age_range": "30-39"}}, {"type": "Feature", "geometry": {"type": "Point", "coordinates": [-75.198723088239, 39.982726948687]}, "properties": {"name": "Nature Man", "ref": "1533", "researchID": "PT16", "zipcode": "19348", "age": "13", "twitter": null, "facebook": null, "instagram": null, "topicArray": ["Environment"], "typeArray": ["Park", "Other No Form"], "creationDate": "2017-09-16 20:56:11", "labLocation": "Penn Treaty Park", "neighborhood": "", "age_range": "13-19"}}, {"type": "Feature", "geometry": {"type": "Point", "coordinates": [-75.150443325972, 39.955628964297]}, "properties": {"name": "Water Park", "ref": "1534", "researchID": "FS13", "zipcode": "", "age": "62", "twitter": null, "facebook": null, "instagram": null, "topicArray": ["Youth"], "typeArray": ["Infrastructure", "Interactive", "Space"], "creationDate": "2017-09-16 20:58:02", "labLocation": "Franklin Square", "neighborhood": "", "age_range": "60-69"}}, {"type": "Feature", "geometry": {"type": "Point", "coordinates": [-75.1360633, 39.9836215]}, "properties": {"name": "God's Purpose", "ref": "1535", "researchID": "NS6", "zipcode": "19122", "age": "51", "twitter": null, "facebook": null, "instagram": null, "topicArray": ["Religion", "Unity", "Uplifting", "Love"], "typeArray": ["Other No Form"], "creationDate": "2017-09-16 20:58:04", "labLocation": "Norris Square", "neighborhood": "Yorktown,Old Kensington,Jinogi", "age_range": "50-59"}}, {"type": "Feature", "geometry": {"type": "Point", "coordinates": [-75.178306113218, 39.964128869279]}, "properties": {"name": "Monument to Hidden Histories", "ref": "1536", "researchID": "MX11", "zipcode": "19143", "age": "36", "twitter": null, "facebook": null, "instagram": null, "topicArray": ["Culture", "Figure", "History", "Inclusivity", "Unity", "Race Ethnicity"], "typeArray": ["Sculpture Statue", "Other No Form"], "creationDate": "2017-09-16 20:58:06", "labLocation": "Malcolm X Park", "neighborhood": "University City", "age_range": "30-39"}}, {"type": "Feature", "geometry": {"type": "Point", "coordinates": [-75.14134527299, 39.94450249218]}, "properties": {"name": "The Heart Lover", "ref": "1537", "researchID": "FS16", "zipcode": "19111", "age": "11", "twitter": null, "facebook": null, "instagram": null, "topicArray": ["Music", "Love"], "typeArray": ["Audio", "Other No Form"], "creationDate": "2017-09-16 21:04:01", "labLocation": "Franklin Square", "neighborhood": "Lawndale,Castor Gardens", "age_range": "6-13"}}, {"type": "Feature", "geometry": {"type": "Point", "coordinates": [-75.1468813, 39.9806481]}, "properties": {"name": "[Untitled]", "ref": "1538", "researchID": "NS5", "zipcode": "19122", "age": "69", "twitter": null, "facebook": null, "instagram": null, "topicArray": ["Animals"], "typeArray": ["Other No Form"], "creationDate": "2017-09-16 21:04:04", "labLocation": "Norris Square", "neighborhood": "Yorktown,Old Kensington,Jinogi", "age_range": "60-69"}}, {"type": "Feature", "geometry": {"type": "Point", "coordinates": [-75.14146290633, 39.944234584944]}, "properties": {"name": "Wave", "ref": "1539", "researchID": "FS15", "zipcode": "19111", "age": "8", "twitter": null, "facebook": null, "instagram": null, "topicArray": ["Environment", "Unknown"], "typeArray": ["Other No Form"], "creationDate": "2017-09-16 21:04:06", "labLocation": "Franklin Square", "neighborhood": "Lawndale,Castor Gardens", "age_range": "6-13"}}, {"type": "Feature", "geometry": {"type": "Point", "coordinates": [-75.150400410627, 39.955665150166]}, "properties": {"name": "The Noise Maker", "ref": "1540", "researchID": "FS17", "zipcode": "", "age": "13", "twitter": null, "facebook": null, "instagram": null, "topicArray": ["Music", "Youth"], "typeArray": ["Audio", "Interactive"], "creationDate": "2017-09-16 21:06:02", "labLocation": "Franklin Square", "neighborhood": "", "age_range": "13-19"}}, {"type": "Feature", "geometry": {"type": "Point", "coordinates": [-75.1642544, 39.9525137]}, "properties": {"name": "The Greatest", "ref": "1541", "researchID": "LS4", "zipcode": "19107", "age": "58", "twitter": null, "facebook": null, "instagram": null, "topicArray": ["African Americans", "Figure", "Sports"], "typeArray": ["Sculpture Statue"], "creationDate": "2017-09-16 21:14:02", "labLocation": "Logan Circle", "neighborhood": "Washington Square West,Avenue of The Arts,Midtown Village,Chinatown", "age_range": "50-59"}}, {"type": "Feature", "geometry": {"type": "Point", "coordinates": [-75.162325511907, 39.952207651682]}, "properties": {"name": "[Untitled]", "ref": "1542", "researchID": "LS5", "zipcode": "19119", "age": null, "twitter": null, "facebook": null, "instagram": null, "topicArray": ["Culture", "Inclusivity", "Philadelphia"], "typeArray": ["Conceptual", "Sculpture Statue", "Park", "Bench"], "creationDate": "2017-09-16 21:16:01", "labLocation": "Logan Circle", "neighborhood": "Mount Airy", "age_range": ""}}, {"type": "Feature", "geometry": {"type": "Point", "coordinates": [-75.170629631017, 39.95761916825]}, "properties": {"name": "[Untitled]", "ref": "1543", "researchID": "LS6", "zipcode": "19119", "age": "14", "twitter": null, "facebook": null, "instagram": null, "topicArray": ["Culture"], "typeArray": ["2D", "Mural", "Image"], "creationDate": "2017-09-16 21:18:01", "labLocation": "Logan Circle", "neighborhood": "Mount Airy", "age_range": "13-19"}}, {"type": "Feature", "geometry": {"type": "Point", "coordinates": [-75.1789056, 40.0356086]}, "properties": {"name": "People of Peace", "ref": "1544", "researchID": "MP1", "zipcode": "19147", "age": "62", "twitter": null, "facebook": null, "instagram": null, "topicArray": ["Inclusivity", "Unity", "Uplifting"], "typeArray": ["Other No Form"], "creationDate": "2017-09-17 16:10:01", "labLocation": "Marconi Plaza", "neighborhood": "Queen Village,Bella Vista,Pennsport,Italian Market", "age_range": "60-69"}}, {"type": "Feature", "geometry": {"type": "Point", "coordinates": [-75.2276161, 39.9526633]}, "properties": {"name": "World Peace", "ref": "1545", "researchID": "MX12", "zipcode": "19143", "age": "25", "twitter": null, "facebook": null, "instagram": "@RizzyRuss5200", "topicArray": ["Inclusivity", "Unity", "Uplifting", "Love"], "typeArray": ["Other No Form"], "creationDate": "2017-09-17 16:10:05", "labLocation": "Malcolm X Park", "neighborhood": "University City", "age_range": "20-29"}}, {"type": "Feature", "geometry": {"type": "Point", "coordinates": [-75.225416432355, 39.952632035257]}, "properties": {"name": "World Peace", "ref": "1546", "researchID": "MX12", "zipcode": "19143", "age": "25", "twitter": null, "facebook": null, "instagram": "RizzyRuss5200", "topicArray": ["Inclusivity", "Unity", "Uplifting", "Love"], "typeArray": ["Other No Form"], "creationDate": "2017-09-17 16:12:01", "labLocation": "Malcolm X Park", "neighborhood": "University City", "age_range": "20-29"}}, {"type": "Feature", "geometry": {"type": "Point", "coordinates": [-75.16414404962, 39.949220442574]}, "properties": {"name": "Brotherly Love", "ref": "1547", "researchID": "CH5", "zipcode": "21045", "age": "51", "twitter": null, "facebook": null, "instagram": null, "topicArray": ["Brotherly Love", "Culture", "Unity", "Uplifting", "Race Ethnicity"], "typeArray": ["Other No Form"], "creationDate": "2017-09-17 16:12:03", "labLocation": "City Hall", "neighborhood": "", "age_range": "50-59"}}, {"type": "Feature", "geometry": {"type": "Point", "coordinates": [-75.198756343103, 39.985127048468]}, "properties": {"name": "Nature Man", "ref": "1548", "researchID": "PT16", "zipcode": "19348", "age": "13", "twitter": null, "facebook": null, "instagram": null, "topicArray": ["Environment", "Sustainability"], "typeArray": ["Park", "Other No Form"], "creationDate": "2017-09-17 16:24:01", "labLocation": "Penn Treaty Park", "neighborhood": "", "age_range": "13-19"}}, {"type": "Feature", "geometry": {"type": "Point", "coordinates": [-75.1361931, 39.9199941]}, "properties": {"name": "S.S. United States", "ref": "1549", "researchID": "PT18", "zipcode": "", "age": "25", "twitter": null, "facebook": null, "instagram": null, "topicArray": ["Neighborhoods"], "typeArray": ["Other No Form"], "creationDate": "2017-09-17 16:26:01", "labLocation": "Penn Treaty Park", "neighborhood": "", "age_range": "20-29"}}, {"type": "Feature", "geometry": {"type": "Point", "coordinates": [-75.163596878981, 39.952418198863]}, "properties": {"name": "Robo Tree", "ref": "1550", "researchID": "PT17", "zipcode": "19023", "age": "13", "twitter": null, "facebook": null, "instagram": null, "topicArray": ["Environment", "Technology"], "typeArray": ["Tree", "Other No Form"], "creationDate": "2017-09-17 16:26:04", "labLocation": "Penn Treaty Park", "neighborhood": "", "age_range": "13-19"}}, {"type": "Feature", "geometry": {"type": "Point", "coordinates": [-75.155641, 39.9831755]}, "properties": {"name": "Philly Connect", "ref": "1551", "researchID": "CH6", "zipcode": "19711", "age": "25", "twitter": null, "facebook": null, "instagram": "@simulationone", "topicArray": ["Art", "Philadelphia", "Unity"], "typeArray": ["Other No Form"], "creationDate": "2017-09-17 16:26:06", "labLocation": "City Hall", "neighborhood": "", "age_range": "20-29"}}, {"type": "Feature", "geometry": {"type": "Point", "coordinates": [-75.1376727, 39.98379]}, "properties": {"name": "Life of Music", "ref": "1552", "researchID": "PT19", "zipcode": "19122", "age": "18", "twitter": null, "facebook": null, "instagram": "@jaystaflame", "topicArray": ["Art", "Environment", "Figure", "Music", "Philadelphia"], "typeArray": ["Audio", "Interactive", "Tree"], "creationDate": "2017-09-17 16:28:02", "labLocation": "Penn Treaty Park", "neighborhood": "Yorktown,Old Kensington,Jinogi", "age_range": "13-19"}}, {"type": "Feature", "geometry": {"type": "Point", "coordinates": [-75.1306682, 39.9662739]}, "properties": {"name": "Indians Statues", "ref": "1553", "researchID": "PT20", "zipcode": "19124", "age": "60", "twitter": null, "facebook": null, "instagram": null, "topicArray": ["Native Americans"], "typeArray": ["Sculpture Statue"], "creationDate": "2017-09-17 16:28:04", "labLocation": "Penn Treaty Park", "neighborhood": "Juniata,Frankford,Feltonville", "age_range": "60-69"}}, {"type": "Feature", "geometry": {"type": "Point", "coordinates": [-75.180736194585, 39.951965850442]}, "properties": {"name": "Honoring Women in Creative Career", "ref": "1555", "researchID": "MX24", "zipcode": "19104", "age": "20", "twitter": null, "facebook": null, "instagram": "luoying3", "topicArray": ["Architecture", "Women"], "typeArray": ["Stumble Stone", "Park"], "creationDate": "2017-09-17 20:30:01", "labLocation": "Malcolm X Park", "neighborhood": "University City,Belmont,Parkside,Powelton Village", "age_range": "20-29"}}, {"type": "Feature", "geometry": {"type": "Point", "coordinates": [-75.154960165952, 39.99438311091]}, "properties": {"name": "The Fresh Prince", "ref": "1556", "researchID": "MP3", "zipcode": "19145", "age": "19", "twitter": null, "facebook": null, "instagram": null, "topicArray": ["Figure", "Philadelphia"], "typeArray": ["Other No Form"], "creationDate": "2017-09-17 20:30:04", "labLocation": "Marconi Plaza", "neighborhood": "Passyunk", "age_range": "13-19"}}, {"type": "Feature", "geometry": {"type": "Point", "coordinates": [-75.171605787461, 39.958684972786]}, "properties": {"name": "Monument to the Murals", "ref": "1557", "researchID": "CH3", "zipcode": "19131", "age": "21", "twitter": "itsvictoriashow", "facebook": null, "instagram": null, "topicArray": ["Art", "Philadelphia", "Uplifting", "Race Ethnicity"], "typeArray": ["Mural", "Other No Form"], "creationDate": "2017-09-17 20:30:06", "labLocation": "City Hall", "neighborhood": "Wynnefield", "age_range": "20-29"}}, {"type": "Feature", "geometry": {"type": "Point", "coordinates": [-75.158117125965, 39.937579610517]}, "properties": {"name": "Waves", "ref": "1558", "researchID": "PT32", "zipcode": "19143", "age": "34", "twitter": null, "facebook": null, "instagram": null, "topicArray": ["Culture", "Immigration", "Inclusivity", "Neighborhoods", "Philadelphia", "Unity", "Race Ethnicity"], "typeArray": ["Building"], "creationDate": "2017-09-17 20:30:16", "labLocation": "Penn Treaty Park", "neighborhood": "University City", "age_range": "30-39"}}, {"type": "Feature", "geometry": {"type": "Point", "coordinates": [-75.1306682, 39.9662739]}, "properties": {"name": "Me Sean P", "ref": "1559", "researchID": "PT30", "zipcode": "19137", "age": "7", "twitter": null, "facebook": null, "instagram": null, "topicArray": ["Figure", "Youth"], "typeArray": ["Other No Form"], "creationDate": "2017-09-17 20:30:19", "labLocation": "Penn Treaty Park", "neighborhood": "Bridesburg", "age_range": "6-13"}}, {"type": "Feature", "geometry": {"type": "Point", "coordinates": [-75.225372511183, 39.952582688456]}, "properties": {"name": "[Untitled]", "ref": "1560", "researchID": "MX19", "zipcode": "19143", "age": "32", "twitter": null, "facebook": null, "instagram": null, "topicArray": ["African Americans", "History", "Industrial", "Philadelphia"], "typeArray": ["Other No Form"], "creationDate": "2017-09-17 20:30:21", "labLocation": "Malcolm X Park", "neighborhood": "University City", "age_range": "30-39"}}, {"type": "Feature", "geometry": {"type": "Point", "coordinates": [-75.164922393148, 39.952574463986]}, "properties": {"name": "Labor Solidarity", "ref": "1561", "researchID": "PT42", "zipcode": "19107", "age": "29", "twitter": "@adamerispala", "facebook": null, "instagram": null, "topicArray": ["History", "Industrial", "Philadelphia", "Unity"], "typeArray": ["Other No Form"], "creationDate": "2017-09-17 20:30:24", "labLocation": "Penn Treaty Park", "neighborhood": "Washington Square West,Avenue of The Arts,Midtown Village,Chinatown", "age_range": "20-29"}}, {"type": "Feature", "geometry": {"type": "Point", "coordinates": [-75.1735079, 39.9156375]}, "properties": {"name": "[Untitled]", "ref": "1562", "researchID": "MP7", "zipcode": "", "age": null, "twitter": null, "facebook": null, "instagram": null, "topicArray": ["African Americans", "Figure", "History"], "typeArray": ["Other No Form"], "creationDate": "2017-09-17 20:30:26", "labLocation": "Marconi Plaza", "neighborhood": "", "age_range": ""}}, {"type": "Feature", "geometry": {"type": "Point", "coordinates": [-75.171874176, 39.949498442754]}, "properties": {"name": "National Welcome Arch", "ref": "1563", "researchID": "RS18", "zipcode": "19146", "age": "33", "twitter": null, "facebook": null, "instagram": null, "topicArray": ["Immigration", "Inclusivity", "Unity"], "typeArray": ["Gateway", "Arch"], "creationDate": "2017-09-17 20:30:28", "labLocation": "Rittenhouse Square", "neighborhood": "Graduate Hospital,Naval Square,Southwest Center City", "age_range": "30-39"}}, {"type": "Feature", "geometry": {"type": "Point", "coordinates": [-75.16539395902, 39.95404662841]}, "properties": {"name": "Fountain (w mermaid)", "ref": "1564", "researchID": "MP11", "zipcode": "19140", "age": "72", "twitter": null, "facebook": null, "instagram": null, "topicArray": ["Figure"], "typeArray": ["Fountain"], "creationDate": "2017-09-17 20:30:30", "labLocation": "Marconi Plaza", "neighborhood": "Hunting Park", "age_range": "70+"}}, {"type": "Feature", "geometry": {"type": "Point", "coordinates": [-75.150421868299, 39.955675019185]}, "properties": {"name": "The tree family", "ref": "1565", "researchID": "FS21", "zipcode": "NJ08002", "age": "9", "twitter": null, "facebook": null, "instagram": null, "topicArray": ["Environment", "Family"], "typeArray": ["Tree"], "creationDate": "2017-09-17 20:30:33", "labLocation": "Franklin Square", "neighborhood": "", "age_range": "6-13"}}, {"type": "Feature", "geometry": {"type": "Point", "coordinates": [-75.1306682, 39.966278]}, "properties": {"name": "Good Deed Recognitions", "ref": "1567", "researchID": "PT41", "zipcode": "19107", "age": "28", "twitter": null, "facebook": null, "instagram": null, "topicArray": ["Inclusivity", "Unity", "Uplifting", "Love"], "typeArray": ["Plaque"], "creationDate": "2017-09-17 20:30:46", "labLocation": "Penn Treaty Park", "neighborhood": "Washington Square West,Avenue of The Arts,Midtown Village,Chinatown", "age_range": "20-29"}}, {"type": "Feature", "geometry": {"type": "Point", "coordinates": [-75.1359218, 39.9720961]}, "properties": {"name": "Woke Mural", "ref": "1568", "researchID": "CH29", "zipcode": "19041", "age": "19", "twitter": null, "facebook": null, "instagram": null, "topicArray": ["Class Structure", "Education", "Inequality", "Philadelphia", "Youth"], "typeArray": ["Mural"], "creationDate": "2017-09-17 20:30:48", "labLocation": "City Hall", "neighborhood": "", "age_range": "13-19"}}, {"type": "Feature", "geometry": {"type": "Point", "coordinates": [-75.149450908636, 39.951694439953]},